name,lat,lon
Güterbahnhof,47.3804363,8.5196824
Finken-Rain,47.4817929,8.6959576
Zentrum Töss,47.4912925,8.7063332
Bahnhofplatz/HB,47.3769147,8.5404941
Memphis,47.3997017,8.616444
Opernhaus,47.3654643,8.5475672
Haldenegg,47.3801303,8.5441031
Rautihalde,47.3868223,8.4734249
Albisriederplatz,47.3780501,8.5103941
Austrasse,47.4251722,8.5751645
Neuwiesen,47.4283433,8.5742512
Botanischer Garten,47.3592009,8.5574438
Uetlihof,47.3567467,8.5139925
Gusch,47.2773033,8.7185355
Dorflinde,47.4073252,8.5494892
Waldburg,47.3454892,8.5930969
Spital Zollikerberg,47.347331,8.5970611
Beugi,47.3364057,8.5753253
Niederhofenrain,47.3477832,8.5764644
Geeren,47.4082829,8.6830291
Zwielplatz,47.4021728,8.4964741
Zentrum Oberenstringen,47.4093576,8.461946
Paradies,47.4105494,8.4585896
Central Polybahn,47.3765183,8.544172
Polyterrasse ETH,47.3768321,8.5463207
Wallisellen Bahnhof,47.4127149,8.5927744
Saalsporthalle,47.3577983,8.5205463
Schmiede Wiedikon,47.3699939,8.5195879
Katholische Kirche,47.3648084,8.4625746
Langwies,47.3592009,8.4651319
Diebis,47.348932,8.4763002
Loomatt,47.3384992,8.4854731
Tägerst,47.2984595,8.487489
Gläseren,47.3735724,8.4486437
Roracher,47.3722393,8.4511578
Uitikon Dorf,47.3706294,8.453823
Untere Mühle,47.2592211,8.5980734
Schnegg,47.2479123,8.6063453
Hüttenstrasse,47.2389487,8.6169868
Mugern,47.2176364,8.6351928
Schinzenhof,47.2606845,8.5971899
Giessen,47.2235241,8.6830354
Enderholz,47.2264595,8.6108053
Wangen Dorfplatz,47.4105412,8.6457783
Langnau a.A. Dorf,47.2886029,8.5411749
Gattikerhöhe,47.2852101,8.5551281
Ebnet,47.2880003,8.5571314
"Männedorf, Auf Dorf",47.2568771,8.7033601
Beugen,47.2673091,8.6506165
Boldernstrasse,47.2583706,8.6999772
Morgental,47.3440851,8.5296731
"Männedorf, Kirchweg",47.2530299,8.6978888
Wingert,47.4105591,8.7124756
Kleindorf,47.2640899,8.6831678
Grüt,47.2713827,8.6705514
Grossdorf,47.2664045,8.6738965
Hallenbad,47.2723672,8.6457452
Vorderer Pfannenstiel,47.2855574,8.6799751
Bergstation Dolderbahn,47.3731699,8.5746371
Grünwald,47.4173177,8.4831586
Bahnhof Wiedikon,47.3715584,8.5240434
Hedy Hahnloser,47.4844837,8.694625
"Grüningen, Freihof",47.2778398,8.7591806
Glaubtenstrasse Nord,47.4147025,8.5197369
Kappelerstrasse,47.2225096,8.5011456
Unteralbis,47.2855676,8.5278562
Neubühl,47.2320723,8.6344618
Tanne,47.2027386,8.6602875
Sandhof,47.2193879,8.6694984
Tobelrain,47.2309082,8.6590226
Wisli,47.2039228,8.7109213
Kerag,47.205325,8.706598
Speerstrasse,47.2072328,8.6908593
Schwyzerstrasse,47.2024667,8.7100723
Horgen Oberdorf Bahnhof,47.2586702,8.5902142
Oeggisbüelplatz,47.2848893,8.5715622
Ebnet,47.2887093,8.5572786
Sagenbach,47.1970599,8.6812986
Oberhofen,47.4341343,8.8782263
Oberkempten,47.3290855,8.8230404
Kreuzackerstrasse,47.3313374,8.8077135
Höfli,47.2018977,8.7066198
Binzackerstrasse,47.3289391,8.8036069
Riedhofstrasse,47.4102395,8.4796791
Riedhofstrasse,47.4094712,8.4792151
Regensdorf-Watt Bahnhof,47.4366344,8.4728694
Kalchbühlweg,47.3403121,8.5315749
Manegg,47.3369553,8.5203704
Schulhaus Kopfholz,47.3082538,8.534192
Birmensdorf Zentrum,47.3538807,8.4371761
Oberhasli Dorf,47.4654269,8.5002338
Manesseplatz,47.3657459,8.5218483
Stallikon Dorf,47.3274429,8.4898742
Bächli,47.4397263,8.6349067
Chlupfgasse,47.4446917,8.6243809
Hätzelwisen,47.4101161,8.6429251
Hinentalstrasse,47.4254545,8.6081778
Bassersdorf Bahnhof,47.4387493,8.6261323
Industriestrasse,47.4142319,8.6219382
Regensdorf-Watt Bahnhof,47.4368031,8.4730427
Schwamendingerplatz,47.4045865,8.5717347
Talgüetli,47.4450292,8.6207327
Effretikon Zentrum,47.4278484,8.6864043
Effretikon Zentrum,47.427515,8.6864864
Erlen,47.483596,8.4711339
Niederhasli Dorf,47.4812084,8.4859523
Girhalde,47.4339551,8.6911435
Grafstal Oberdorf,47.4434258,8.6977168
Moosburg,47.4209764,8.6918108
Freienberg,47.4631258,8.583183
Opfikon Dorf,47.4322029,8.5780255
Huzlenstrasse,47.3931807,8.683689
Hintermarchlen,47.4817726,8.5898863
In der Ey,47.3696362,8.4918432
Bülach Güterbahnhof,47.5240548,8.5372449
Leimgrübelstrasse,47.4286223,8.5432417
Rigiblick,47.3873301,8.5533362
Buchhalden,47.4444394,8.5953244
Freienberg,47.4635213,8.5831204
Bahnhof Glattbrugg,47.4306401,8.5595666
Oberglatt Bahnhof,47.4703242,8.5108053
Untertor,47.51654,8.5421899
Untertor,47.5155335,8.5421606
Appenzellerstrasse,47.3988567,8.5101628
Kirche Fluntern,47.3762387,8.5592877
Alte Post,47.5269234,8.6687666
Langensteinenstrasse,47.3924951,8.5496687
Germaniastrasse,47.3874509,8.5525297
Seilbahn Rigiblick,47.3858838,8.5489474
Bänk Hanfland,47.5450387,8.7413239
Flaach Wesenplatz,47.5753496,8.6096469
Dietlikon Bahnhof/Bad,47.4216735,8.6205976
Balsberg Hardacher,47.4403914,8.5715817
Farbhof,47.3910598,8.4788409
Gemeindehaus,47.3407518,8.5759372
Steinacker,47.3963606,8.4263826
Neumatt,47.3869368,8.4205745
Thalwil Bahnhof,47.2958977,8.565201
Thalwil Zentrum,47.2947428,8.5646881
Eckstein,47.4103702,8.448915
Zopfschmitten,47.1929475,8.6756345
In der Au,47.3896336,8.6888375
Allmend,47.2709878,8.6483755
Ormis,47.2708259,8.6531833
Weid,47.2660061,8.6685043
Grueb,47.2666619,8.6593955
Limmatplatz,47.3849755,8.5321996
Reidbach,47.2210757,8.6847022
Wolfenhof,47.294763,8.4856156
Stallikon Dorf,47.3269624,8.4899846
Oberrenggstrasse,47.2824396,8.530044
Schwerzi-Wildpark,47.287398,8.533397
Technikum,47.4978137,8.7293658
Chaletweg,47.4133739,8.5310603
Birchstrasse,47.4130399,8.53576
Regensdorf Zentrum,47.4311183,8.4661351
Hauptbahnhof,47.4993478,8.723693
Sportanlage Wisacher,47.4376846,8.4607903
Dunkelhölzli,47.3885975,8.4703424
Schulhaus Buchlern,47.3846789,8.4785395
Escher-Wyss-Platz,47.3906783,8.5224005
Glaubtenstrasse,47.4140852,8.5192444
Hölzliwisen,47.3801955,8.6786891
Löwenplatz,47.3759408,8.5373362
Wildberg Alte Post,47.4277045,8.8160001
Giesserei Wolfensberger,47.363447,8.8715665
Stampfenbachplatz,47.3801519,8.542687
Glaubtenstrasse Nord,47.4147631,8.5197205
Holzerhurd,47.4237869,8.4966542
Unterottikon,47.2920806,8.7757513
Robenhausen,47.3293645,8.7854706
Stuketen,47.4039139,8.7629284
Frymannstrasse,47.3349436,8.5193412
Lägernstrasse,47.3960346,8.5322182
Nordstrasse,47.3878412,8.536034
Röntgenstrasse,47.3821651,8.5294589
Helvetiaplatz,47.3762092,8.5255613
Kernstrasse,47.3746404,8.5244118
Bahnhof Enge/Bederstrasse,47.3645043,8.5302659
Seilbahn Rigiblick,47.3861207,8.5482194
Geeringstrasse,47.4143217,8.480696
Hofwiesen,47.4263974,8.6186508
Dornenstrasse,47.416423,8.6166894
Dübendorferstrasse,47.4128343,8.6204625
Embrach Gemeindehaus,47.5022585,8.5948196
Embrach Gemeindehaus,47.5025503,8.5948226
Zürcherstrasse,47.4995356,8.5948984
Embrach Post,47.5054558,8.5937048
Embrach Post,47.5062479,8.5935494
Bucheggplatz,47.3984386,8.533005
Weisslingen Mühle,47.4423176,8.7650085
Weissenthal,47.446451,8.7712206
Goldbrunnenplatz,47.3702888,8.5138776
Strick,47.3564162,8.7127133
Dammstrasse,47.3535424,8.7157153
Gschwader,47.3582876,8.7128181
Meieracher,47.3600606,8.71473
Haberweid,47.3618426,8.7130757
Brandschenke,47.3616981,8.710596
Loren,47.3579674,8.7116728
Oberlandstrasse,47.3541834,8.7160554
Loren-Allee,47.3581828,8.7095797
Uster Spital,47.3538944,8.7236003
Uster Spital,47.3537791,8.7234085
Reithalle,47.3559743,8.7263717
Gschwaderstrasse,47.354597,8.7086355
Gschwaderstrasse,47.3547084,8.7085861
Stadtpark,47.3485578,8.7164358
Aescherstrasse,47.3508449,8.4384075
Im Klösterli,47.3845785,8.5769247
Seestrasse,47.3417681,8.5674611
Mühlebachplatz,47.2912131,8.5646339
Ebnet,47.5020548,8.8011523
Ebnet,47.5018537,8.8012431
Pestalozzistrasse,47.4990874,8.7988722
Sportplatz,47.5020179,8.7909709
Bännebrett,47.5042012,8.7834677
Gemeindeplatz,47.2876984,8.4307099
Sunnenberg,47.3124628,8.4736504
Sunnenberg,47.3121535,8.4735027
Kerag,47.2049439,8.7050188
Bächlistrasse,47.2053552,8.7002212
Im Leemann,47.2052501,8.694084
Speerstrasse,47.2063307,8.6923455
Untere Schwanden,47.2060784,8.6869378
Obermatt,47.2033291,8.6855251
Obermatt,47.204221,8.6863781
Bucheggplatz,47.3983401,8.533454
Dörfli,47.4002785,8.4068713
Hofacker,47.3984396,8.4111645
Birmensdorferstrasse,47.3977069,8.4170471
Uitikonerstrasse,47.3823193,8.4259624
Weihermatt Bahnhof,47.3800963,8.429836
Langächer,47.3437164,8.4690535
Bäumlisächer,47.3423966,8.4699864
Landikon Bach,47.3522187,8.4617219
Obere Risi,47.359019,8.4508913
Obere Risi,47.3595015,8.4507283
Unteralbis,47.2858901,8.5279152
Dielsdorf Bahnhof,47.4830448,8.4588143
Strick,47.2971627,8.7821488
Dorfzentrum,47.4813922,8.4536401
Musterplatz,47.5312837,8.4661524
Neuwis-Huus,47.5341417,8.4699686
Windlach Kreuz,47.5386835,8.471212
Nürensdorferstrasse,47.4408163,8.6705439
Oberrieden Dorf Bahnhof,47.2770279,8.5770997
Langnau a.A. Dorf,47.2885485,8.538807
Glattfelden Bahnhof,47.5488395,8.5243037
Schulhaus Hof,47.5588367,8.5025245
Campus Rothus,47.2248322,8.6798134
Neerach Post,47.5130093,8.4748839
Schwerzi-Wildpark,47.2880992,8.5329846
Schloss,47.3246884,8.7984657
Oberwetzikon,47.326769,8.7998414
Bahnhof Oberwinterthur,47.5066129,8.7582402
Dorfmitti,47.3668524,8.8767216
Heizenholz,47.4121445,8.4838327
Frankental,47.405408,8.4817752
Bahnhof Wiedikon,47.3712202,8.5238507
Oberkempttal,47.4307088,8.7055839
Bussenhausen,47.372838,8.7816392
Strassenverkehrsamt,47.3531622,8.5115423
Dillhus,47.3807745,8.8592967
Halden,47.3853191,8.7589485
Buchs-Dällikon Bahnhof,47.4530495,8.4374628
"Grüningen, Stedtli",47.2840209,8.7624572
Hegnau,47.3883812,8.6762036
Hegnau,47.3884074,8.6762475
Zimikon,47.3853673,8.6726344
Zimikon,47.3850954,8.6722832
In der Höh,47.385254,8.6676713
In der Höh,47.3851603,8.6694533
Chammwisen,47.3882801,8.6774571
Chrummacher,47.3795109,8.6831319
Petermoos,47.4575861,8.4429127
Buchs-Dällikon Bahnhof,47.4533353,8.437446
Buchs Post,47.4566575,8.4375791
Isikon,47.3766795,8.8134372
Zelgli,47.3949272,8.753905
Wilhof,47.3849977,8.7784032
Russikon Gemeindehaus,47.3946485,8.7766082
Weisslingerstrasse,47.407943,8.7267904
Sulzberg,47.3798635,8.7818658
Sulzberg,47.3798138,8.7819153
Elgg,47.4984794,8.8633303
Hittnau Oberdorf,47.3671991,8.8263969
Luppmen,47.3634925,8.8302506
Faichrüti,47.3598349,8.7591256
Langmoos,47.2830012,8.5344309
Schalchen,47.407299,8.8283654
Hermatswil,47.3943623,8.8262072
Widum,47.3307859,8.796518
Bahnhof Oerlikon Ost,47.4134129,8.5462785
Leutschenbach,47.4142575,8.551691
Triemli,47.3680937,8.4956728
Eselriet,47.4242429,8.700378
Morgenthal,47.3914468,8.7708699
Juckeren,47.386185,8.8571092
Tablat,47.4114942,8.8597481
Steinacher,47.4117968,8.7136937
Buhnstrasse,47.4223963,8.5386247
Buhnstrasse,47.4225627,8.5386758
Goldbrunnenplatz,47.3704254,8.5137412
Signaustrasse,47.3632976,8.5575017
Schwimmbad Töss,47.4847484,8.7062943
Klusplatz,47.3639417,8.5665176
Loorenstrasse,47.3596969,8.5937689
Birmensdorferstrasse,47.397706,8.4172539
Dörfli,47.4006449,8.4062585
Aspholz,47.4249065,8.5012306
Mühlacker,47.4261662,8.4962068
Blumenfeldstrasse,47.4237781,8.5052572
Zehntenhausplatz,47.4188445,8.5070599
Bahnhof Affoltern,47.4214333,8.5075207
Heuwinkelstrasse,47.3697005,8.6831045
Heuwinkelstrasse,47.3689664,8.6819997
Grossriet,47.3740035,8.6809005
Grossriet,47.3741229,8.6806415
Milandia,47.3781685,8.674295
Tumigerstrasse,47.3660553,8.6800007
Städtli,47.365358,8.6782007
Im Hof,47.3646987,8.6808199
Pfisterhölzli,47.3644288,8.6906565
Hofwisen,47.381177,8.672963
Hofwisen,47.3810803,8.6730189
Volkiland Chliriet,47.3819903,8.6671207
Volkiland Chliriet,47.3818473,8.6679107
Seegräben Gemeindehaus,47.3436291,8.7694881
Fracht,47.4525605,8.5721091
Altes Krematorium,47.3777084,8.5073374
Wisental,47.4779915,8.554919
Wisental,47.4778582,8.5550417
Bickwil,47.2697274,8.4284156
Hölibachstrasse,47.2692736,8.4334335
Strick,47.356325,8.7128506
Brandschenke,47.3604708,8.7109403
Belvoir,47.3070713,8.5486551
Toussen,47.263882,8.4302658
Alte Post,47.261991,8.4201974
Unterlunnern,47.2629935,8.4100943
Reithalle,47.3565001,8.7269779
Weidli,47.3539285,8.7305703
Himmelriich,47.3567057,8.7297268
Bordacker,47.3519332,8.7292904
Wageren,47.3519304,8.7271026
Talweg,47.3484199,8.7308536
Hegetsberg,47.3493138,8.733183
Oberuster,47.3451828,8.7309363
Florastrasse,47.3465906,8.7266987
"Uster, Florastrasse",47.3466462,8.7262222
Grafstal Unterdorf,47.4452364,8.7013841
Engelacher,47.4421749,8.70039
Vogelbuckstrasse,47.4346712,8.6835202
Brüttenerstrasse,47.4319773,8.6859913
Ettenhusen,47.4489819,8.7378372
Kyburg Dorf,47.4572014,8.7445249
Grossenacher,47.382538,8.7172904
Gutenswil Sternen,47.3853384,8.7188287
Gutenswil Unterdorf,47.3848795,8.7138693
Giessen,47.3887577,8.6966226
Volketswil Dorf,47.3896036,8.6928728
Botanischer Garten,47.3592929,8.558009
Frohwies,47.3682465,8.7815316
Kreuzplatz,47.3648829,8.5540328
Matten,47.3701986,8.7771097
Bachtelstrasse,47.3253068,8.8079907
Hörnlistrasse,47.3708544,8.7856833
Halten,47.2713516,8.6573034
Hohenegg,47.2739951,8.6609209
Bundi,47.2812134,8.6670944
Obermeilen,47.2649105,8.654519
Dollikon,47.2641625,8.6628794
Schulhaus Obermeilen,47.2677994,8.6560802
Alte Sonne,47.2665704,8.6565936
Drei Eichen,47.1922536,8.6803367
Frohberg,47.199465,8.6873327
Im Walder,47.1942935,8.6785648
Fälmis,47.1901032,8.6776605
Samstagern Bahnhof,47.1918789,8.6855836
Beerimoos,47.3303851,8.4799223
Hermannsweid,47.2011514,8.7079251
Langhaldenstrasse,47.3061049,8.5511479
Roren,47.2829051,8.6699776
Leimgrübelstrasse,47.4286851,8.5441308
Nauen,47.2706275,8.8525657
Rüti Bahnhof,47.2600532,8.8548695
Medikon/Kulti,47.3251252,8.7862125
Haldenstrasse,47.3274784,8.785173
Oberdürnten,47.2793209,8.8603982
Oberdürnten,47.2791285,8.8604409
Langacher,47.2785966,8.8642112
Langacher,47.2781874,8.8656573
J.C. Heerstrasse,47.275158,8.8747324
Blatt,47.273736,8.8556609
Blatt,47.2738616,8.8557446
Nauen,47.2704959,8.8526478
Rothus,47.2770555,8.8347478
Rothus,47.2770422,8.834534
Dürnten Kirche,47.2778743,8.8444166
Dürnten Kirche,47.2783841,8.8431039
Bubikon Bahnhof,47.2706099,8.8227081
Bubikon Bahnhof,47.2710346,8.8221559
Tafleten,47.2748761,8.8228648
Tafleten,47.2747261,8.8216464
Etzelstrasse,47.2773687,8.840647
Etzelstrasse,47.2772837,8.8408534
Sonnenberg,47.2658952,8.8522134
Sonnenberg,47.2668312,8.8529787
Härtiplatz,47.2608487,8.8516126
Härtiplatz,47.2606346,8.8513639
Gstalden,47.3006209,8.8443723
Gstalden,47.3005423,8.8445398
Hinwil Sportplatz,47.2968565,8.8495562
Hinwil Sportplatz,47.2972277,8.8490415
Zelgacher,47.2891003,8.8550196
Hadlikon,47.288075,8.8564636
Hadlikon,47.2870199,8.8565268
Apothekerstrasse,47.3462038,8.7151354
Talacker,47.3436813,8.7163508
Talacker,47.3431373,8.7158892
Riedikon Dorf,47.3323593,8.7114883
Riedikon Dorf,47.3321457,8.711235
Pumpwerkstrasse,47.446122,8.4622908
Haldensteig,47.4489999,8.4710694
Waserstrasse,47.3583233,8.5843875
Berghaldenstrasse,47.3586144,8.589833
Ringlikon Dorf,47.3583688,8.4694677
Breitenmattstrasse,47.2777201,8.8707582
Breitenmattstrasse,47.2775858,8.8708074
Römertor,47.5106858,8.7585035
Niederuster,47.3446245,8.7022154
Niederuster,47.3444796,8.7021644
Burgreben,47.3439987,8.7168045
Zentralstrasse,47.3471078,8.7178463
Stadthaus,47.3477492,8.7192764
Bachtelstrasse,47.5094391,8.7230154
Bahnhofplatz/HB,47.3773089,8.539545
Chinagarten,47.3543515,8.5530924
Bahnhof Tiefenbrunnen,47.3497448,8.5610859
Felbenstrasse,47.3429902,8.5698621
Dufourplatz,47.3402583,8.572686
Goldhaldenplatz,47.3348835,8.5776655
Autobahn,47.5117808,8.6893525
Höschgasse,47.3580171,8.5542426
Sunnau,47.3259325,8.5301853
Dorfplatz,47.315029,8.467547
Chrummacher,47.3799177,8.6836963
Hegi im Gern,47.505244,8.776726
Hegi im Gern,47.5052522,8.7769141
Central,47.3769077,8.5436082
Central,47.3771991,8.5432284
Albispasshöhe,47.2758602,8.5212933
Milchbuck,47.3976817,8.5416116
Gewerbeschule,47.4977305,8.7321217
Zentralstrasse,47.3470156,8.7176292
Im Hölzli,47.3393706,8.7142648
Im Hölzli,47.3395225,8.7145261
Wangen Oberdorf,47.4079016,8.6459059
Jugendhaus,47.3495624,8.7118872
Jugendhaus,47.3504868,8.7129935
Auf Dorf,47.256876,8.7042715
Schmiede Wiedikon,47.3697848,8.5187857
Chammwisen,47.3879177,8.6777082
Gries,47.3856487,8.6795411
Bahnhof Kilchberg,47.3245141,8.5481967
Weinbergstrasse,47.3324833,8.5435927
Weinbergstrasse,47.3321669,8.5429735
Stadtgrenze,47.3348609,8.5417412
Stadtgrenze,47.3352703,8.5411668
Hofstetterstrasse,47.481734,8.4928361
Hofstetterstrasse,47.4817633,8.4929979
"Uster, Linde",47.3444542,8.7336301
Linde,47.3444268,8.7334822
Rütihof,47.4137174,8.4773168
Heizenholz,47.4124346,8.4837836
Heizenholz,47.4123095,8.4838578
Segantinistrasse,47.4078828,8.4895177
Segantinistrasse,47.4072192,8.490192
Singlistrasse,47.4055889,8.4924274
Singlistrasse,47.4053866,8.49284
Meierhofplatz,47.4026276,8.4996661
Meierhofplatz,47.4026261,8.4994761
Schwert,47.3997146,8.5048324
Schwert,47.3997254,8.5048077
Lehenstrasse,47.3961586,8.5206541
Lehenstrasse,47.3960881,8.520913
Widmerstrasse,47.3368212,8.5329609
Dangelstrasse,47.3344193,8.5299772
Morgental,47.3431585,8.5305012
Bellevue,47.3667612,8.5460093
Bellevue,47.366473,8.5448259
Kirche Fluntern,47.3772356,8.5590411
Tobelhof,47.3828607,8.585741
Hohenklingensteig,47.4010404,8.4909798
Winzerstrasse Süd,47.4028034,8.4866467
Winzerstrasse Süd,47.4034242,8.4861438
Kehlhof,47.2340628,8.7366055
Bahnhof Oerlikon Ost,47.4134347,8.545854
Waffenplatz-/Bederstrasse,47.3616499,8.5264684
Waffenplatzstrasse,47.3607122,8.5256577
Brunau/Mutschellenstrasse,47.3540092,8.5261554
Wollishoferplatz,47.338711,8.530568
Grubenstrasse,47.3627897,8.5117301
Räffelstrasse,47.3631351,8.5144788
Räffelstrasse,47.3627308,8.5155963
Binz,47.3630196,8.5182822
Binz,47.3629382,8.5184857
Friesenberg,47.3645715,8.5081323
Friesenberg,47.3644215,8.507914
Bucheggplatz,47.3980176,8.533518
Bucheggplatz,47.3983345,8.5333981
Bucheggplatz,47.3983285,8.5330835
Bucheggplatz,47.3981482,8.5332336
Bucheggplatz,47.3985432,8.5330941
Bucheggplatz,47.3984416,8.5330432
Lerchenhalde,47.411566,8.5101188
Lerchenhalde,47.411748,8.5091859
ETH Hönggerberg,47.4086351,8.50797
ETH Hönggerberg,47.4084185,8.5074334
ETH Hönggerberg,47.4089603,8.508218
Krone,47.2414909,8.7230454
Neugut Süd,47.4027299,8.6018144
Neugut Süd,47.4027401,8.6014476
Hoffnung,47.395976,8.6002218
Bahnhof Hardbrücke,47.3848991,8.5167746
Kappeli,47.3844071,8.49486
Kappeli,47.3841212,8.4944121
Bristenstrasse,47.3901794,8.4872235
Bristenstrasse,47.3898929,8.4868199
Langensteinenstrasse,47.3925207,8.5498544
Schäppiweg,47.3898696,8.5514294
Schäppiweg,47.3899513,8.5508771
Germaniastrasse,47.3871786,8.5525786
Nordstrasse,47.3885098,8.5359412
Klusplatz,47.363816,8.5667427
Seuzach Gemeindehaus,47.5366537,8.7297331
Birchdörfli,47.4072151,8.5309004
Wiesendangen Gemeindehaus,47.5223304,8.7891873
Waffenplatzstrasse,47.3610721,8.525153
Eggbühl,47.405515,8.4742781
Lanzrain,47.4073372,8.4679811
Riethofstrasse,47.4366922,8.5693176
Florastrasse,47.4119018,8.5966294
Sportanlage Heerenschürli,47.4043788,8.5957862
Sportanlage Heerenschürli,47.4045942,8.5954874
Sihlcity,47.3582226,8.523188
Dübendorferstrasse,47.4130157,8.6202202
Aegert,47.4119882,8.6215695
Aegert,47.4120846,8.6214423
Unterdorf,47.3989286,8.6176955
Unterdorf,47.3987818,8.6180586
Im Grund,47.4016229,8.6176851
Zwinggarten,47.4036372,8.6193081
Zwinggarten,47.4043734,8.6197202
Brüttisellen Zentrum,47.4239093,8.6308377
Haldenbrücke,47.4189424,8.6313358
Haldenbrücke,47.4188699,8.6314044
Weidli,47.4123164,8.6402597
Weidli,47.412554,8.6394983
Dürrbach,47.4081494,8.6377499
Dübendorf Bahnhof Nord,47.4007176,8.6244344
EMPA,47.4015956,8.6121306
EMPA,47.4021438,8.6109938
Campus Grüental,47.2184245,8.6775236
"Gossau ZH, Ernst-Brugger-Platz",47.3017657,8.7630625
Ziegelhütte,47.4530892,8.4661293
Mittelleimbach,47.3231047,8.5142713
Baldernstrasse,47.3208433,8.5155625
Phonak,47.2393248,8.7435618
Mies,47.239073,8.7386926
Stäfa Dorf,47.2392514,8.7356189
Landi,47.2408175,8.7323441
Obstgarten,47.2411928,8.7303424
Tränkebachstrasse,47.242183,8.7271002
Krone,47.2414686,8.7228481
Phonak,47.2392342,8.7434621
Lerchenhalde,47.4119648,8.5097623
Zehntenhausplatz,47.4194475,8.5066302
Lerchenrain,47.4140104,8.5095056
Lerchenrain,47.4140884,8.5096119
Schumacherweg,47.4121122,8.5139808
Schumacherweg,47.4122842,8.515467
Oberembrach Dorf,47.4871199,8.6192466
Brünigstrasse,47.4461345,8.4816608
Geerenweg,47.4394222,8.4764761
Pächterried,47.4458398,8.4701375
Hütten Schulhaus,47.1753778,8.6658672
Hütten Friedhof,47.1758488,8.6610888
Geerenweg,47.4394729,8.4779083
Dreispitz,47.4384507,8.4644951
Strickhof,47.3935282,8.5475285
Bachtelstrasse,47.3245378,8.8068627
Langhag,47.4369518,8.6867164
Toblerplatz,47.379282,8.5591579
Stäfa Dorf,47.2396753,8.7346739
Landi,47.240572,8.7327563
Obstgarten,47.2411194,8.7302587
Fehrenbach,47.2863158,8.4412043
Kreuzplatz,47.3658534,8.5538567
Hegibachplatz,47.3616723,8.5600593
Hegibachplatz,47.3618828,8.5606271
Saland Dorf,47.3907851,8.8537624
Güpf,47.3009409,8.4486946
Oberrüti,47.4799085,8.561781
Oberrüti,47.4799041,8.5631149
Hausacker,47.2950513,8.4491875
Kronenplatz,47.2811436,8.4536259
Blitzgbach,47.2852672,8.4531064
Grund,47.3310472,8.474137
Saalsporthalle,47.3570758,8.5218744
Bonstetten-Wettswil Bahnhof,47.3264407,8.468467
Weinberg,47.2792661,8.4618574
Höri Gemeindehaus,47.5082002,8.5102271
Sihlcity,47.3582181,8.5230374
Aumüli,47.3019387,8.4852541
Lätten,47.3189682,8.456661
Embrach Oberdorf,47.5009882,8.5981701
Sonnhalde West,47.4533495,8.4587788
Chilenholzstrasse,47.3340755,8.4788128
Lärchenhof,47.3239725,8.4723288
Leematten,47.4525976,8.4670726
Aesch Gemeindehaus,47.3378276,8.4385257
Sellenbüren,47.3426244,8.4827201
Bleiki,47.3340427,8.4884725
Aegerten,47.3199182,8.490567
Büchel,47.3011476,8.5221058
Glärnischstrasse,47.2536481,8.7025786
Zweierhof,47.1970176,8.6488455
Eskimo,47.519062,8.6372025
Dättlikon,47.5250443,8.6230621
Zehntenhausplatz,47.4187002,8.5061486
Zehntenhausplatz,47.4195356,8.5055283
Hungerbergstrasse,47.4212467,8.5003955
Chrüzächer,47.4278422,8.4732015
Gemeindehaus,47.4342296,8.4698119
Gemeindehaus,47.4341873,8.4694622
Holenbach,47.4316217,8.4607598
Seitenacker,47.438784,8.4450513
Dällikon Dorf,47.4398037,8.4396714
Dänikon Gemeindehaus,47.4458652,8.4077219
Rotflue,47.4470594,8.3974457
Hüttikon,47.4460288,8.3869154
Hüntwangen-Wil Bahnhof,47.5809934,8.5132468
Bonstetten-Wettswil Bahnhof,47.3264826,8.468541
Bonstetten-Wettswil Bahnhof,47.326446,8.4683979
Riedgraben,47.4108209,8.5592587
Riedgraben,47.4108071,8.5583961
Jungholz,47.3504317,8.6963966
Jungholz,47.3505432,8.6965603
Sonnenberg,47.3502932,8.7031224
Sonnenberg,47.350063,8.7021698
Burgreben,47.3438149,8.7173158
Burgstrasse,47.3427262,8.720538
Burgstrasse,47.3434071,8.7197277
Apothekerstrasse,47.3462059,8.7150008
Stadtpark,47.3486755,8.7161908
Krone,47.3412459,8.7254635
Krone,47.3409113,8.726111
Nossikon,47.340204,8.7297042
"Uster, Oberuster",47.3455478,8.7303218
Pfannenstielstrasse,47.3469238,8.7015363
Bildungszentrum,47.3476355,8.7098009
Buchholz,47.3581688,8.7284756
Buchholz,47.3587661,8.7290878
Gutenswil Sternen,47.3850129,8.7188898
Im Spitz,47.365141,8.7718241
Frohwies,47.3683065,8.781585
Zelgli,47.2739455,8.7197988
Zelgli,47.2742021,8.7196063
Felsengrund,47.2818752,8.7147273
Oberesslingen,47.2839704,8.7132267
Oberesslingen,47.2847042,8.7128425
Esslingen Bahnhof,47.2878755,8.710056
Loogarten,47.2914563,8.7134604
Loogarten,47.2912903,8.7132951
Lieburg,47.2965512,8.7182233
Lieburg,47.2959028,8.7174658
Wihalde,47.3017459,8.719857
Wihalde,47.3017664,8.7200692
Huebstock,47.3056756,8.7209303
Huebstock,47.305479,8.7208899
Traube,47.3082529,8.7214435
Traube,47.3088261,8.7215636
Mönchhof,47.3111416,8.7212408
Mönchhof,47.3117712,8.7216975
Langenmatt,47.3155,8.7208706
Chis/Naturstation,47.3258857,8.7107423
Chis/Naturstation,47.3269057,8.7098618
Saatlenstrasse,47.4108811,8.5626681
Saatlenstrasse,47.4109,8.5639219
Niederweningen Bahnhof,47.5110812,8.3700506
Wolfzangen,47.5222452,8.6701249
Werdhölzli,47.3978575,8.4819638
Schloss,47.5110094,8.6983927
Lindenplatz,47.5106578,8.6945904
Oberfeld,47.5095962,8.7037303
Feldtal,47.5082165,8.7084178
Blumenau,47.5071075,8.7120109
Hinterwiesli,47.5056632,8.716454
Spyriplatz,47.3824452,8.5522203
Spyriplatz,47.3820782,8.5520356
Rekrutierungszentrum,47.2599031,8.842506
Mörsburgstrasse,47.5367335,8.7336688
Ifang,47.4102966,8.6057768
Ifang,47.4101046,8.6043281
Hörnligraben,47.4123797,8.6148633
Hörnligraben,47.4121185,8.6142705
Obere Wangenstrasse,47.4258091,8.6352618
Zürich Flughafen,47.4504199,8.563483
Zürich Flughafen,47.4498444,8.5635249
Kirchgasse,47.4527654,8.58488
Bussenhausen,47.3725477,8.7816697
Wilhof,47.3842204,8.7787459
Tüfi,47.3910452,8.7750799
Russikon Kirche,47.3967282,8.7729406
Platte,47.4003979,8.7695865
Widum,47.4346447,8.763504
Platte,47.3996133,8.7709234
Oberhof,47.4276672,8.766708
Theilingen Post,47.4220361,8.767975
Oberhof,47.4273203,8.7668749
Kollbrunn Bahnhof,47.4581441,8.7740422
Altenberg,47.3471418,8.420463
ETH Hönggerberg,47.4089176,8.5077072
Alterszentrum,47.5124448,8.5913875
Risi/Dow,47.2509348,8.617915
Lindenplatz,47.3986186,8.6204758
City Center,47.3969914,8.6164769
Memphis,47.4001728,8.6162254
Untere Risi,47.3598204,8.4468625
Dufourplatz,47.3405139,8.5724705
Egetswil Dorf,47.4718367,8.5824174
Hettlingen Föhrenstrasse,47.5487891,8.7138581
Glatt (Bus),47.4092424,8.5960291
Birmensdorf Bahnhof Süd,47.357146,8.4374725
Birmensdorf Bahnhof,47.3569588,8.4387069
Oetwil am See Zentrum,47.2700237,8.7211224
Oetwil am See Zentrum,47.2701278,8.7208703
"Oetwil am See, Holzhusen",47.2704445,8.7400398
"Grüningen, Adler",47.2762832,8.7561424
Grüningen Station,47.2813776,8.7601425
Im Haufland,47.2833989,8.7659777
"Grüningen, Im Haufland",47.283901,8.7663494
Ottikon Kreisel,47.2959806,8.7789662
Grünau,47.3080093,8.780359
Grüt Dorf,47.3111423,8.7824951
Lindenhof,47.3115808,8.7859849
Alpenblick,47.3142558,8.7941032
Alpenblick,47.31392,8.7936048
Wetzikon Bahnhof Süd,47.3172858,8.7919059
Kreuzplatz,47.3040309,8.8324509
Kreuzplatz,47.3037213,8.8341221
Wildbach,47.3204714,8.7943708
Wildbach,47.3205886,8.7946016
Walfershausen,47.3220921,8.7973098
Emmetschloo,47.3265251,8.8310909
Emmetschloo,47.3265183,8.8337752
Ochsen,47.332753,8.8122137
Ochsen,47.3326808,8.8135493
Eishalle,47.3317015,8.847939
Eishalle,47.3318071,8.8465056
Sunneberg,47.3390654,8.8409977
Frowiesstrasse,47.3383991,8.8440223
Bäretswil Gemeindehaus,47.3364101,8.8570004
Bauma Bahnhof,47.3683517,8.8790421
Bahnhof Wollishofen/Werft,47.34786,8.5343442
Rentenanstalt,47.3631025,8.5352073
Einfangstrasse,47.4154975,8.5133273
Landikon Dorf,47.352733,8.461319
Steg Bahnhof,47.3538558,8.9325243
Ottenbach Zentrum,47.2801638,8.4043431
Wülflingen,47.5150142,8.6830612
Elsau Dorf,47.5046731,8.801992
Stadthaus,47.3970783,8.619338
Stadthaus,47.3969629,8.6198982
Bühlstrasse,47.3320136,8.5795484
Boglerenstrasse,47.3262454,8.582312
Schiedhaldenstrasse,47.3233529,8.5825107
Oberwacht,47.3192839,8.5844841
Obere Heslibachstrasse,47.3169221,8.5855192
Bergstrasse,47.3144903,8.5896225
Himmelistrasse,47.3141581,8.5923103
Hesligenstrasse,47.3157312,8.5929986
Ränkestrasse,47.3145,8.595415
Küsnacht Allmend,47.315841,8.597194
Schübel,47.3220525,8.5898105
Rebweg,47.3265722,8.5980906
Itschnach Dorf,47.3277502,8.6022737
Itschnach Fallacher,47.3290774,8.6061596
Zollikon Bahnhof,47.337592,8.5699132
Höhestrasse,47.3399412,8.5809859
Allmend,47.343274,8.5834645
Schützenstrasse,47.3451977,8.5866918
Rebwiesstrasse,47.3458626,8.5895992
Waldburg,47.3453699,8.593013
Zollikerberg Station,47.345999,8.602154
Langägerten/Spital,47.34702,8.5984533
Gartenstrasse,47.3115168,8.5875154
Haldengut,47.5068017,8.7305761
Haldengut,47.5072302,8.7308945
Bahnhof Tiefenbrunnen,47.3500005,8.5612104
Dufourplatz,47.340035,8.5725559
Schiedhaldenstrasse,47.3229325,8.583457
Uetikon Bahnhof,47.259254,8.6788486
Gemeindehaus,47.2626193,8.6802109
Oergelacher,47.2687506,8.679543
Boldernstrasse,47.2589357,8.6993589
Laubberg,47.3853624,8.8448838
Laubberg,47.3839087,8.8423909
Hasel/Schönau,47.3794344,8.8319565
Hasel/Schönau,47.3802583,8.8324816
Oberhittnau,47.3608506,8.8229341
Nassacker,47.3948478,8.4416421
Brunngasse,47.3964781,8.4480618
Freizeitanlage,47.4777527,8.6992167
Pfaffenwiesen,47.5144151,8.763192
Eishalle,47.4959278,8.7482966
Ohrbühl,47.498307,8.7630127
Museumstrasse/HB,47.5009791,8.724886
Bolrebenweg,47.4811446,8.6993421
Zeughaus,47.494636,8.7334857
Lindenplatz,47.5105569,8.6931597
Aesch Gemeindehaus,47.3383869,8.4389033
Bergacher,47.2509623,8.8557727
Gruebenplatz,47.2519917,8.8541547
Steinstrasse,47.2511828,8.8587743
Chrüzstrasse,47.4539226,8.6348615
Chrüzstrasse,47.4540628,8.6349028
Birchwil,47.4577525,8.6388928
Birchwil,47.4584156,8.6392831
Oberwil,47.4641781,8.6401032
Oberwil,47.4641948,8.6405296
Freienberg,47.4631413,8.5836171
Oberseen,47.4775651,8.7722836
Grüntal,47.4803288,8.7719406
Grüntal,47.4810743,8.7721455
Waser,47.4866225,8.7556715
Waser,47.4862146,8.7564712
St. Urban,47.4876346,8.758619
St. Urban,47.4872665,8.7592388
Post Seen,47.486264,8.7646548
Post Seen,47.4857689,8.7655105
Post Seen,47.4863724,8.7655737
Eishalle,47.4963345,8.7485201
Stocken,47.4831734,8.7714723
Stocken,47.4840018,8.7712045
Pflanzschulstrasse,47.4982293,8.7390868
Pflanzschulstrasse,47.4982289,8.738979
Grüzenstrasse,47.4982091,8.7443402
Grüzenstrasse,47.4982045,8.7445854
Palmstrasse,47.5005805,8.7371237
Palmstrasse,47.5006788,8.7380362
Swica,47.5009588,8.7404487
Swica,47.5010454,8.7411754
Gewerbeschule,47.4975182,8.7335946
Gewerbeschule,47.4983334,8.7339115
Fotozentrum,47.4954102,8.7373281
Fotozentrum,47.4957715,8.7368534
Industriepark,47.5013731,8.7605204
Industriepark,47.50122,8.7619612
Industriepark,47.5015079,8.761857
Else Züblin,47.5023374,8.7637326
Else Züblin,47.5024857,8.7646207
Bahnhof Hegi,47.5019884,8.76988
Loki,47.4961533,8.7140308
Technorama,47.5131742,8.7631181
Schmidgasse,47.499943,8.7267746
Schmidgasse,47.5001139,8.7280208
Obertor,47.500527,8.7328812
Bezirksgebäude,47.5036295,8.7301273
Bezirksgebäude,47.5036963,8.730082
Brücke,47.5004632,8.7446256
Haltenreben,47.5176443,8.6774344
Schloss,47.5109338,8.6973879
Oberwetzikon,47.326773,8.7997462
Schloss,47.3240718,8.798465
Walfershausen,47.3221559,8.7974246
Abzweigung Oberholz,47.2787591,8.9319648
Hittenberg,47.2775128,8.9352355
Pflegezentrum,47.2754422,8.9081012
Ober-Feld,47.2749173,8.9016346
Etzelstrasse,47.2767394,8.9027891
Dieterswil,47.2874266,8.9071004
Binzholz,47.2819524,8.9101629
Farnboden,47.283329,8.9141302
Oberfeld,47.5099034,8.7026799
Blumenau,47.507446,8.7110135
Auwiesen,47.48367,8.7030101
Schwimmbad Töss,47.4850259,8.7073745
Thalegg,47.444173,8.7041546
Thalegg,47.4439679,8.7041033
Langwiesen,47.5134429,8.6859078
Langwiesen,47.513872,8.6850244
Steig,47.475317,8.7012388
Steigmühle,47.476983,8.7030574
Töss,47.4890177,8.7033361
Töss,47.488743,8.7042258
Friedhof,47.513719,8.7217238
Friedhof,47.5135432,8.7218173
Schützenhaus,47.5176579,8.7194701
Bachtelstrasse,47.5090648,8.7233692
Tellstrasse,47.5038866,8.7211086
Letten,47.50354,8.6896036
Letten,47.5036238,8.6894574
Fachschule,47.5014199,8.6930005
Fachschule,47.5009999,8.693382
Bahnhof Wülflingen,47.5065665,8.6810154
Schulhaus Wyden,47.5083419,8.6812204
Schulhaus Wyden,47.5082001,8.6810342
Niederfeld,47.5099155,8.6800832
Niederfeld,47.509776,8.6799165
Klinik Schlosstal,47.5059903,8.6856265
Klinik Schlosstal,47.5060498,8.6857805
Ausserdorf,47.507189,8.6887866
Ausserdorf,47.5073234,8.6891471
Unterdorf,47.5090756,8.689292
Unterdorf,47.5101312,8.6889871
Hardau,47.5109839,8.6814583
Hardau,47.5114894,8.6821489
Freibad Wülflingen,47.5119558,8.6856563
Freibad Wülflingen,47.5122994,8.6849727
Schlossberg,47.4991879,8.695239
Grafenstein,47.497952,8.6976395
Grafenstein,47.497649,8.6985893
Schlossberg,47.4996482,8.6947472
Schöntal,47.4932661,8.7086216
Schöntal,47.4933175,8.7085538
Friedliweg,47.495632,8.7044193
Friedliweg,47.4957387,8.7041829
Nägelsee,47.4967522,8.7014418
Nägelsee,47.4965551,8.7021194
Rebwiesen,47.4943623,8.7071877
Rebwiesen,47.4947542,8.7066424
Brühleck,47.4979519,8.7169587
Sulzer,47.4983355,8.7192991
Sulzer,47.4983707,8.719564
Stadtrain,47.5018796,8.7479886
Stadtrain,47.5019528,8.748255
Talacker,47.5030921,8.7514566
Talacker,47.5035566,8.752452
Hohlandweg,47.5046335,8.7547526
Hohlandweg,47.5046608,8.7548067
Bahnhof Oberwinterthur,47.5072381,8.7591643
Bahnhof Oberwinterthur,47.5076694,8.7599607
Schiltwiesen,47.5098179,8.7599628
Schiltwiesen,47.5108791,8.7601317
Widen,47.3698156,8.8675947
Sternen/WSL,47.360094,8.456101
Höchweg,47.2708755,8.4806716
Höchweg,47.2705536,8.4811736
Tössallmend,47.5202991,8.6574736
Tössallmend,47.5200165,8.6575004
Breite Sternen,47.4608603,8.6598941
Grünenwaldstrasse,47.4619677,8.6612785
Grünenwaldstrasse,47.4618767,8.6612382
Winterthurerstrasse,47.4615083,8.6609765
Riet (Neftenbach),47.5364106,8.6866179
Aesch (Neftenbach),47.5417679,8.6812363
Aesch (Neftenbach),47.5419608,8.6812016
Ziegeleiweg,47.4796055,8.697486
Freizeitanlage,47.4778297,8.6990753
Finken-Rain,47.4819717,8.6964846
Steigmühle,47.4774213,8.7023924
Neunbrunnen,47.4164116,8.538161
Neunbrunnen,47.4167136,8.538307
Maillartstrasse,47.4161682,8.5320223
Stierenried,47.4166088,8.5350307
Maillartstrasse,47.4162177,8.5317911
Stierenried,47.4165996,8.5356394
Geeren,47.4083039,8.6841035
Schwerzenbach Bahnhof,47.3842326,8.6592048
Zum Wilden Mann,47.4535607,8.5795061
Zum Wilden Mann,47.4534502,8.5807955
Kirchgasse,47.4527888,8.5847959
Messe/Hallenstadion,47.4106724,8.5520512
Wolfbühl,47.1843987,8.6519655
Hauptbahnhof,47.4999287,8.7240481
Hauptbahnhof,47.5004599,8.7244707
Hauptbahnhof,47.4993501,8.7238878
Hauptbahnhof,47.4989894,8.7237012
Waldheim,47.491159,8.7342018
Jonas Furrer,47.4907099,8.721693
Nussbaumweg,47.4901753,8.7286467
Irchelstrasse,47.4903773,8.7193715
Waldheim,47.4912186,8.7344412
Breite,47.4903099,8.725843
Breite,47.4903014,8.7260281
Nussbaumweg,47.4901643,8.7288856
Turmstrasse,47.4896056,8.7312248
Technikum,47.497826,8.7294983
Zeughaus,47.4941495,8.7338744
Turmstrasse,47.489593,8.7310402
Tössfeld,47.4915197,8.7144464
Oberwinterthur,47.5212483,8.7580543
Oberwinterthur,47.5204439,8.7580907
Obstgartenweg,47.5190827,8.7578248
Zinzikon,47.5172189,8.7574625
Zinzikon,47.5163073,8.7573556
Obstgartenweg,47.5184639,8.7577014
Guggenbühl,47.5139315,8.7576618
Guggenbühl,47.5138867,8.757668
Berg,47.450738,8.6512118
Berg,47.451253,8.651526
Deutweg,47.4942031,8.7406789
Deutweg,47.4935572,8.7419338
Musikschule,47.5058354,8.736129
Musikschule,47.5063959,8.7340145
Ringwil,47.3147336,8.8553127
Langmatt,47.3075244,8.8705778
Stadthaus,47.5004116,8.7306033
Tobel,47.2537389,8.7801698
Plattenhof,47.2533888,8.7744739
Hombrechtikon Post,47.2524778,8.7701264
Hombrechtikon Post,47.2522155,8.769664
Tobel,47.253817,8.7809713
Tobel,47.2539871,8.7795446
Plattenhof,47.2534211,8.7767668
Seen,47.4875291,8.7663739
Waldegg,47.4910926,8.746838
Zentrum Seen,47.4843967,8.7630349
Zentrum Seen,47.4850126,8.7638352
Endliker,47.4881793,8.7525906
Endliker,47.4878753,8.7531789
Gutschick,47.4895706,8.7498364
Depot,47.4930366,8.742969
Hinterwiesli,47.5054081,8.7171499
Hinterdorf Seen,47.4846856,8.7592785
Schulhaus Seen,47.4832952,8.7616468
Waldegg,47.4901184,8.7487546
Depot,47.492627,8.7437762
Museumstrasse/HB,47.5011776,8.7250466
Uitikon Dorf,47.3704322,8.4545175
Oberohringen Friedenstrasse,47.5276313,8.7122907
Unterohringen Wisental,47.5350922,8.7096331
Oberohringen Friedenstrasse,47.5273909,8.7126862
Brunngasse,47.5073641,8.7256651
Etzberg,47.491663,8.7594034
Scheidegg,47.4945296,8.7511006
Loorstrasse,47.5114867,8.7215315
Spital,47.5056761,8.7282915
Bettenplatz,47.5142381,8.7190194
Strahlegg,47.4932496,8.75521
Spital,47.5052287,8.7287888
Loorstrasse,47.5113315,8.721591
Strahlegg,47.4934301,8.7546269
Brunngasse,47.5074689,8.725524
Eishalle,47.4970487,8.7468733
Etzberg,47.4915016,8.759316
Scheidegg,47.4949239,8.750142
Engelwiese,47.2815187,8.4049945
Gemeindeplatz,47.28731,8.432259
Hundsruggen,47.3035705,8.7895064
Rosenau,47.486663,8.7084791
Bolrebenweg,47.4811256,8.6992543
Rudolf Diesel,47.4964434,8.7520548
Grüze-Märkte,47.4943603,8.7571393
Rosenau,47.487009,8.7085365
Rudolf Diesel,47.4964162,8.7510591
Grüze-Märkte,47.4942002,8.7577011
Holderbaum,47.3657586,8.8844434
Bauma,47.3688189,8.878214
Hittnau Industrie,47.368203,8.8213623
Gotzenwil,47.4732337,8.777138
Gotzenwil,47.4732384,8.7767411
Klösterli Iberg,47.4661283,8.7793582
Ziegelhütte,47.4732455,8.7696646
Ziegelhütte,47.4732732,8.769884
Schützenbühl,47.4788299,8.765746
Hinterdorf,47.2834695,8.4026543
Oberes Büel,47.5079489,8.7512214
Bäumliweg,47.5021312,8.744764
Hammerweg,47.5054495,8.748374
Kantonsschule,47.5052734,8.7381771
Im Geissacker,47.5103235,8.7548528
Bäumliweg,47.5021474,8.7447041
Ohrbühl,47.4982472,8.7626849
Schützenstrasse,47.3448612,8.5858175
Rebwiesstrasse,47.345679,8.5883522
Allmend,47.3427026,8.58273
Werft,47.4450155,8.5716434
Zentrum Leue,47.2533512,8.6955912
Zürich Flughafen,47.4499089,8.5635044
Zürich Flughafen,47.4495269,8.5636388
Zürich Flughafen,47.449586,8.5636067
Zürich Flughafen,47.4496506,8.5635863
Zürich Flughafen,47.4497152,8.5635658
Kaserne Ost,47.4574513,8.580229
Hohrainli,47.4596911,8.5816447
Kaserne Ost,47.4573996,8.5802035
Hohrainli,47.4604714,8.5818154
Werft,47.4454014,8.5703912
Zürich Flughafen,47.450489,8.5634912
Zürich Flughafen,47.4505535,8.5635038
Augwil,47.4774067,8.5917821
Embraport,47.5177569,8.5938249
Aubrücke,47.5269747,8.578577
Lufingen Unterdorf,47.4903725,8.5955099
Embraport,47.5186942,8.5940568
Illingerweg,47.515677,8.5896702
Embrach-Rorbas Bahnhof,47.5204099,8.5868067
Augwil,47.4766638,8.5921199
Zürcherstrasse,47.5003331,8.5945509
Dreispitz,47.5099184,8.5938377
Ostring,47.4321554,8.4711607
Ostring,47.4320433,8.4709649
Niederurdorf,47.390281,8.4185541
Rümlang Bahnhof,47.4540136,8.53264
Militär-/Langstrasse,47.3793556,8.5275361
Militär-/Langstrasse,47.3799558,8.5278671
Hegibachplatz,47.3616855,8.5607737
Höfliweg,47.3675332,8.5109115
Höfliweg,47.3677007,8.5110298
Birchdörfli,47.4078849,8.5304004
Limmatplatz,47.3844704,8.5313142
Egghof,47.510259,8.8945585
Rotfluhstrasse,47.3433769,8.5770256
Werft,47.444022,8.5708683
"Männedorf, Glärnischstrasse",47.2534394,8.7022202
Aubrücke,47.4100673,8.5722893
Aubrücke,47.4108248,8.5718273
Aubrücke,47.4104641,8.5727508
Schindlet,47.3773189,8.8954995
Schindlet,47.3774506,8.8959097
Mode Center TMC,47.423368,8.5588122
Sihlcity Nord,47.3605054,8.5228098
Friedhof Sihlfeld,47.3760375,8.5109647
Botanischer Garten,47.3597854,8.5574887
Sihlcity Nord,47.3602127,8.5235276
Jugendherberge,47.3478998,8.5281037
Jugendherberge,47.3482164,8.5276766
Manesseplatz,47.3656234,8.5217473
Hügelstrasse,47.3584511,8.5260301
Friedhof Sihlfeld,47.3757624,8.5109309
Höschgasse,47.3578797,8.5548233
Höschgasse,47.3579478,8.5550611
Hügelstrasse,47.3587092,8.5269725
Manesseplatz,47.3654595,8.5215837
Besenrainstrasse,47.3457185,8.5278964
Jugendherberge,47.3469637,8.5284091
Brunau/Mutschellenstrasse,47.3552044,8.5268755
Waldburg,47.3452934,8.5934471
Langägerten/Spital,47.3465443,8.597669
Töss,47.4883633,8.7025935
Töss,47.4888504,8.7028542
Auwiesen,47.4839017,8.7035562
Bergstrasse,47.3144559,8.589657
Himmelistrasse,47.3136271,8.5921783
Hesligenstrasse,47.3154216,8.5938406
Obere Heslibachstrasse,47.3168449,8.5855977
Oberwacht,47.3196175,8.584479
Farbhof,47.3913401,8.4785093
Seilbahn Rigiblick,47.3856591,8.5484621
Chapf,47.393273,8.6794324
Bahnhof Altstetten,47.3908713,8.4889047
Bahnhof Altstetten,47.3911676,8.4879525
Moosstrasse,47.3025539,8.5451129
Park im Grüene,47.3002147,8.5503994
Rudishaldenstrasse,47.2932499,8.559222
Aegertli,47.2959367,8.5595849
Schulhaus Kopfholz,47.3091638,8.5337995
Eggrain,47.3046697,8.5441267
Loorain,47.3073511,8.5420356
Thalwil Zentrum,47.2952169,8.5641768
Thalwil Post,47.296843,8.5626055
Kapelle Rikon,47.4329399,8.6890877
Grafstal Oberdorf,47.4435472,8.6979886
Milchhütte,47.5269543,8.4382612
Milchhütte,47.5268874,8.4385833
Moosstrasse,47.3339857,8.4745435
Fronwald,47.4219064,8.5098605
Fronwald,47.4220833,8.5097535
Bahnhof Affoltern,47.4208607,8.507388
Waldegg Post,47.3683224,8.4620172
Uitikon Waldegg Bahnhof,47.3663295,8.465252
Birmensdorferstrasse,47.368433,8.4636924
Dorflinde,47.407442,8.5489261
Bahnhof Leimbach,47.3335513,8.5189265
Bahnhof Leimbach,47.3330952,8.5184572
Wiesendangen Bahnhof,47.525651,8.775285
Heidenchilen,47.345357,8.4669768
Landikon Dorf,47.3528325,8.4608786
Heidenchilen,47.3456615,8.4666389
Gamlikon,47.3114298,8.4933141
Aumüli,47.3031413,8.4857942
Aumüli,47.3021711,8.4859157
Birmensdorf Bahnhof,47.3569908,8.4384659
Birmensdorf Bahnhof,47.35692,8.4389349
Friedhof,47.2826211,8.446543
Hinterdorf,47.284284,8.4020627
Affoltern a.A. Bahnhof,47.2755198,8.4463969
Affoltern a.A. Bahnhof,47.275837,8.4466026
Affoltern a.A. Bahnhof,47.2758577,8.4467601
Grund,47.3320867,8.4742225
Moosstrasse,47.3345114,8.4746864
Halde,47.3689606,8.4597713
Roracher,47.3720802,8.4514447
Halde,47.369091,8.4592862
Rickenbach Dorf,47.5513276,8.7943312
Rickenbach Dorf,47.5518843,8.7959681
Spital Limmattal,47.3929779,8.4309897
Langwisen,47.4089478,8.4480282
Feldegg,47.392108,8.4280979
Feldstrasse,47.4032983,8.4479137
Talacker-Windegg,47.405774,8.4478017
Sennenbüel Nord,47.4134333,8.4493292
Langacher,47.4122993,8.4527579
Schlieren Bahnhof,47.3996221,8.448539
Heimeliweg,47.394522,8.437154
Sennenbüel,47.4133026,8.4487471
Spitzacker,47.3843273,8.4217163
Rautistrasse,47.3835478,8.4835533
Salzweg,47.3879871,8.471285
Farbhof,47.390359,8.4791002
Hohfuri,47.5268427,8.5443394
Schuemacher,47.5288278,8.5443054
Witenwisen,47.5203048,8.5464273
Stubenchlaus,47.5229224,8.5520881
Berglistrasse,47.5237541,8.5459631
Moritz-Meyer-Weg,47.5149523,8.5438665
Rümlang Oberdorf,47.4519665,8.530329
Letten,47.4383181,8.5349379
Strassenverkehrsamt,47.4398009,8.4613003
Feldblumenstrasse,47.4359163,8.4645321
Moosächer,47.4400889,8.4568562
Altersheim,47.4345699,8.4672598
Alter Bahnhof,47.5634893,8.4253523
Mühle,47.4501244,8.5919358
Oberweningen Dorf,47.4999216,8.4094658
Schöfflisdorf Gemeindehaus,47.4997025,8.4158499
Riedmattstrasse,47.461544,8.5268793
Rafz Bahnhof,47.6043167,8.5440141
Rümlang Gemeindehaus,47.450018,8.5299258
Tiefengasse,47.5146208,8.5329003
Breitenmatt,47.6065639,8.5050134
Stadthalle,47.515369,8.5368452
Soligänter,47.5283856,8.5418729
Soliboden,47.5266138,8.539017
Bülach Bahnhof Ost,47.5242385,8.5378631
Kreuzstrasse,47.5194231,8.541388
Bramenstrasse,47.5046313,8.5413113
Kaffeestrasse,47.5117092,8.5363098
Unterbuch,47.5503798,8.6185849
Gewerbehaus,47.5184852,8.5389126
Volken Post,47.5740541,8.6245371
Flaach Oberdorf,47.5753346,8.6156753
Flaach Wesenplatz,47.5754337,8.6090004
Psychiatrische Uniklinik,47.63591,8.606654
Rheinau Unterstadt,47.6447278,8.6052238
Hallenbad,47.6378523,8.6011198
Galgenbuck,47.6371516,8.6188202
Neerach Gemeindehaus,47.5108745,8.4714437
Dielsdorf Bahnhof Ost,47.4827277,8.460544
Weiach Gemeindehaus,47.5565897,8.4373025
"Weiach, Steinbruch",47.551139,8.445953
Bäuler,47.4358638,8.5582125
Hirslen,47.5227104,8.5250336
Hinterbirch,47.5220339,8.5293119
"Windlach, Lengg",47.5431264,8.4636839
Winkel Oberdorf,47.4911318,8.5555384
Schmiede,47.5009213,8.545009
Fuhrstrasse,47.5094688,8.5151195
Sonnenhof,47.5206676,8.5397927
Bülach Spital,47.5208008,8.5336895
Niederflachs,47.5155841,8.5311827
"Bülach, Waag",47.518148,8.537938
Steinmaur Gemeindehaus,47.4941097,8.4493002
Obersteinmaur,47.4988574,8.4548866
Steinmaur Bahnhof,47.489834,8.4479913
Rietli,47.4448937,8.6356266
Bassersdorf Gemeindehaus,47.443595,8.6291214
Laubisser,47.4474768,8.4776861
Zweidlergraben,47.5646814,8.4776197
Dällikon Industrie,47.4443105,8.4388163
Buchs Industrie,47.4500627,8.4382342
Althard,47.4380611,8.4703491
Bezirksgebäude,47.4818995,8.4525854
Hirsmühle,47.4822483,8.4443257
Spitalstrasse,47.4813212,8.4506686
Wil Dorf,47.6047949,8.5079958
Lirenhof,47.6069451,8.4994769
"Hüntwangen, Fabrikstrasse",47.5955704,8.4915177
Wasterkingen Gemeindehaus,47.5899251,8.4694974
Oberhöri,47.5039985,8.5004253
Zweidlen Bahnhof,47.5705867,8.4685412
Schulplatz,47.64279,8.600565
Eichhölzli,47.5545965,8.5085261
"Glattfelden, Emmerstrasse",47.5574273,8.5020642
Viehmarkt,47.576256,8.5227188
"Bülach, Nippel",47.518429,8.531969
Berufswahlschule,47.5183767,8.5320717
Alte Post,47.5052309,8.5459295
Hüntwangen Dorf,47.5949434,8.4924871
Winkel Zentrum,47.4925862,8.5523267
Bülach Kantonsschule,47.5173237,8.5470641
Bühlhof,47.4832428,8.5607831
Zentrum Kohlfirst,47.6899823,8.6434489
Aarüti,47.5606238,8.485833
Einkaufszentrum Süd,47.5091634,8.5394006
"Eglisau, Heimat",47.578504,8.523369
Kaiserhof,47.5723716,8.5274027
Eglisau Altersheim,47.5755583,8.5277678
Schlafapfelbaum,47.5793534,8.519711
Grampenweg,47.5167602,8.5393328
Raat,47.5454753,8.457886
Rafz Post,47.6109362,8.5393599
Sporthalle Ruebisbach,47.461959,8.5772005
Mettmenriet,47.5122578,8.5435352
Kaserne,47.5132127,8.5260711
Kirschgarten,47.2860099,8.800061
Herschmettlen,47.2842,8.8011359
Hellberg,47.2937498,8.8047587
Hasenacher,47.3002078,8.7916869
Brüschweid,47.2980988,8.7965687
Bönler,47.3060081,8.7904968
Laufenbach,47.2612978,8.8640071
Gubel,47.2597879,8.8605353
Platte,47.2768547,8.815175
Fischenthal Bahnhof,47.3337894,8.9226868
Gibswil Bahnhof,47.3138754,8.9154152
Moos,47.3032716,8.7695066
Rietlirain,47.2345847,8.7460623
Bandwies,47.2579971,8.8494192
Steinacher,47.2532368,8.8567437
Moosstrasse,47.2558659,8.8561986
Ferrach,47.2555945,8.8579382
Löwen,47.258778,8.8515535
Weier,47.2534753,8.867156
Laupen Schulhaus,47.2653782,8.9293306
Seefeldstrasse,47.2527338,8.8435339
Uerikon Bahnhof,47.235959,8.7527668
Moritzberg,47.2387353,8.7513303
Neugut,47.2583294,8.8073376
Gsteig,47.2398551,8.7587657
Holflüe,47.2491387,8.7684242
Jonamarkt,47.2590458,8.8496537
Hinwil Friedhof,47.3007105,8.8494545
Wihalde,47.2641669,8.8149328
Dörfli,47.2511136,8.7641693
Niderfeld,47.2494457,8.7593893
Wisental,47.2490663,8.7547165
Oberwolfhausen,47.2577473,8.796495
Mürtschenstrasse,47.2648171,8.9299334
Ettenhausen,47.3223289,8.8245376
Rehazentrum,47.2764152,8.9427992
Hauptstrasse,47.2655441,8.925492
"Hinwil, Alpenblick",47.305604,8.844484
Hüebli,47.2546253,8.7962281
Bubikon Dorf,47.2686289,8.8186892
Bad Kämmoos,47.2608534,8.8297775
Grüt,47.2431942,8.7630601
Sulzbach,47.3281076,8.745314
Wolfhausen Zentrum,47.2576059,8.8022276
Sportplatz,47.2503212,8.8417159
Laubisrüti,47.2386772,8.7473787
Unterwiesstrasse,47.2560103,8.8460147
Krone,47.2514003,8.7660016
Girenbad,47.3095156,8.8719481
Wernetshausen Dorf,47.2992058,8.866746
Ritterhaus,47.2351427,8.7570416
Letten,47.2969676,8.8614119
"Gossau ZH, Rigistrasse",47.3114139,8.7589266
Wetzikon Spital,47.322294,8.8018657
Pflegezentrum,47.3204566,8.7968313
Buchgrindel,47.3287619,8.7896516
Sonnenfeld,47.3268637,8.8051131
"Gossau ZH, Oberstufe/Altrüti",47.299696,8.7681501
Eichberg,47.2492637,8.7727889
Eichtal,47.2495128,8.7779703
Garstlig,47.2456663,8.7791921
Feldbach Bahnhof,47.2389809,8.7831124
Schwabach,47.2755418,8.6254003
Schulhaus Feld,47.2764957,8.6229516
Grundhofstrasse,47.2861056,8.6175592
Freudacherstrasse,47.2955268,8.6131079
Forchstrasse,47.2871312,8.6212537
Bergstrasse,47.2943427,8.6141679
Aryanastrasse,47.2884581,8.6185771
Alterssiedlung,47.2870705,8.6150431
Herrliberg Schulhaus,47.2885067,8.6133516
Sportplatz,47.2928117,8.611747
Pfarrgasse,47.2872949,8.6087911
Rietli,47.2866977,8.6259494
Holzwies,47.2933189,8.608294
Humrigen,47.2843993,8.6199486
Grüt,47.2902562,8.605833
Rebbergstrasse,47.2784897,8.6186558
Tobel,47.2822512,8.6186694
Parkresidenz,47.2700971,8.638508
Plätzli,47.2742335,8.6252277
Herrliberg-Feldmeilen Bahnhof,47.2816997,8.6126181
Tennisplätze,47.2907897,8.6156809
Vogtei,47.2895475,8.609916
Wässerwies,47.2431184,8.7275251
Vollenweid,47.2596301,8.5104802
Mettmenstetten Bahnhof,47.2439861,8.4575802
Uttenberg,47.2345891,8.4492153
Bifang,47.2408205,8.5355281
Wädenswil Friedhof,47.2208182,8.6735692
Im Streuli,47.2970849,8.6063451
Im Bindschädler,47.2955431,8.603984
Langnau-Gattikon Bahnhof,47.2873562,8.5436815
Gattikerhof,47.283505,8.5460199
Feldstrasse,47.2902517,8.5597473
Eichholz,47.2821066,8.6240874
Zentrum Feldmeilen,47.2790097,8.6156399
Grindlen,47.2442608,8.5289099
Pflugstein,47.2969085,8.6086252
Seleger Moor,47.2428265,8.5068373
Unterrifferswil,47.2477416,8.4941048
Rossau,47.2269373,8.4824395
Bezirksspital,47.2810701,8.4569578
Männedorf Spital,47.2514283,8.696436
Rain,47.2449829,8.7200136
Sonnenfeld,47.2472624,8.7070283
Campus Reidbach,47.2194,8.6874167
Schnegg,47.248825,8.6049966
Heubach,47.2544579,8.5984564
Heubach,47.2549617,8.5975596
Gehren,47.251897,8.6016138
Wissenbach,47.2347973,8.4739117
Rossauerstrasse,47.2421783,8.4651914
Tramstrasse,47.2658609,8.6769309
Ulmenhof,47.2777513,8.407406
Strandbad,47.2410679,8.7139614
Weinberg,47.2796948,8.4614336
Scheller,47.2692707,8.5868134
Seehalde,47.2735301,8.5830137
Oberrieden Bahnhof,47.2791733,8.5793361
Plattenhof,47.2654328,8.5881911
Grund,47.2411444,8.7261767
Binz,47.2494219,8.7237721
Austrasse,47.2453196,8.6483636
Binz,47.2492674,8.7237768
Widmerheim,47.267438,8.5841667
Tannenbach,47.2691285,8.5825627
Säntisstrasse,47.264319,8.5862407
Mettmenstetten Oberdorf,47.2464734,8.4682338
Lochhof,47.2885483,8.4225046
Aeugstertal Kloster,47.2842851,8.4869336
Segel,47.1816505,8.6553904
Gisenrüti,47.2121142,8.6481678
Oberrenggstrasse,47.2828509,8.5297857
Lilienberg,47.2780201,8.4667787
Müliberg,47.2814013,8.4784897
Tägerst,47.2988568,8.487408
Hehlstrasse,47.2844093,8.5369919
Oberrifferswil,47.2419303,8.4976736
Horgen Oberdorf Bahnhof,47.2586955,8.5901788
Tüfenbach,47.2590995,8.5220284
Riedmatt,47.2628988,8.5172644
Hausen a.A. Post,47.2449037,8.532834
Wannenthal,47.2565989,8.6019854
Panorama/CS,47.2583583,8.5867867
Stigeli,47.2784749,8.4591347
Teufenbach,47.2562886,8.6047255
Werkhof Beichlen,47.2077075,8.6602563
Glärnischhof,47.2546651,8.6095902
Heisch,47.2488073,8.5301245
Bahnhof West,47.2825739,8.6117576
Albisbrunn,47.2385693,8.5399409
Wetzwil,47.294739,8.6306796
Ebertswil Schulhaus,47.2271905,8.5492378
Oberdorfweg,47.2870137,8.6164447
Kirche Wetzwil,47.29672,8.6252901
Rebberg,47.2887494,8.6146737
Maschwanden Dorf,47.2346141,8.4267832
Rain,47.2927905,8.6071549
Busenhardstrasse,47.2908438,8.610638
Mühlehölzli,47.2580239,8.7206067
Uelikon,47.2492208,8.7182709
Langholz,47.266004,8.7244565
Eichweid,47.2184356,8.6756056
Baumgarten,47.2210079,8.6719555
Zehntenstrasse,47.2900372,8.5703934
Rainstrasse,47.2870822,8.5716934
Gewerbestrasse,47.2865288,8.5664373
In Reben,47.2920698,8.5677252
Böni,47.2846815,8.5654378
Mettli,47.2819106,8.5731558
Oeggisbüelplatz,47.284767,8.5716265
Kniebreche,47.2513605,8.7228895
Alterszentrum,47.2855099,8.570026
Archstrasse,47.2960387,8.5618325
Hubstrasse,47.2794373,8.5746595
Wattenbühlweg,47.2732928,8.5801462
Schützenhaus Wanne,47.2546854,8.7205975
Schmittenbach,47.3441536,8.9294857
Lipperschwändi,47.3596534,8.9197309
"Ellikon a. d. Thur, Wald",47.562235,8.848484
Kleinandelfingen Dorf,47.5995681,8.6830969
Kleinandelfingen Bad,47.6021083,8.6874274
Stammheim Bahnhof,47.6350185,8.788907
Schachenweg,47.5159933,8.719979
Andelfingen Bahnhof,47.5939291,8.6780688
Chapf,47.3078995,8.6090546
Föhrenstrasse,47.3069902,8.607905
Trottgatter,47.3070459,8.6133365
Tolhusen,47.4871054,8.8120708
Grubenstrasse,47.5072939,8.7645614
Schlossacker,47.5072646,8.7670634
Rickenbach-Attikon Bahnhof,47.5354729,8.7894475
Neubrunn-Ulmerhof,47.6534243,8.7840024
Unterstammheim Adler,47.6395271,8.7902477
"Rämismühle-Zell, Bahnhof",47.4415093,8.8189525
Sennhof,47.4669708,8.7596836
Wiesendangen Oberdorf,47.5222327,8.7977684
Gerenhalde,47.4314329,8.6678076
Marthalen Bahnhof,47.6314928,8.6562629
Dinhard Gemeindehaus,47.5551617,8.7684049
Oberstammheim Post,47.6340684,8.7949037
Marthalen Dorf,47.6273112,8.6506887
Sunnezirkel,47.5379515,8.7885569
Schrännenbrunnen,47.3953865,8.7364125
Dorf Gemeindehaus,47.5727244,8.6482599
Brütten Zentrum,47.4720171,8.6761293
Wiesendangen Dorf,47.5212123,8.7900595
Wiesendangen Hinterdorf,47.5219796,8.7943564
Wasserfuri,47.5266025,8.7820407
Harossen,47.4715227,8.682071
Baumschulstrasse,47.5219198,8.7844119
Hofacher,47.4708536,8.6704885
Brückenwaage,47.5730524,8.7822195
Ländli,47.5259628,8.7791532
Wolfgässli,47.5274964,8.6661899
Wylandbrücke,47.4951056,8.7208458
Stäffelistrasse,47.504535,8.7717343
Reutlingen,47.528162,8.7511726
Dättnau,47.4851128,8.6914802
Schlyffi,47.3456132,8.6976171
Herrgass,47.5254308,8.6600508
Schlatt Schulhaus,47.4728931,8.8277832
Benken Dorf,47.6529548,8.6533911
Rutschwil,47.5574094,8.7296424
Grundstrasse,47.3636547,8.7990014
Undermüli,47.3915762,8.7424334
Hettlingen Bahnhof,47.5454833,8.6950862
Elgg Bahnhof,47.4983299,8.863348
Neuhaus bei Hinteregg,47.3127233,8.6741608
Lindenwiese,47.4259871,8.6995319
Müselacher,47.4291205,8.6964648
Illnau Bahnhof,47.4085771,8.7228846
Chrummenacher,47.4054368,8.7191253
Illnau Kirche,47.4143832,8.7173199
Trüllikon Dorf,47.637907,8.6937927
Trüllikon Kindergarten,47.6377974,8.6848437
Neufuhr,47.3342212,8.7404743
Tagelswangen Dorf,47.4303419,8.6717463
Löwen,47.4166061,8.7170184
Ruetschbergstrasse,47.3627757,8.7665948
Fehraltorf Bahnhof,47.3854452,8.7501213
Neschwil Post,47.4302246,8.7880909
Lendikon,47.4258737,8.7787738
Kehlhof,47.4344959,8.8564648
Neubrunn,47.439706,8.8935492
Hutzikon,47.4403068,8.8434812
Turbenthal Bahnhof,47.4371933,8.844029
Turbenthal Schloss,47.4354929,8.8483024
Alterswohnheim,47.3075238,8.5943425
Bahnhofstrasse,47.3038835,8.5913946
Erlenbach Bahnhof,47.3057638,8.5913348
Im Loo,47.3048723,8.5936477
Im Vogelsang,47.3058333,8.5965169
Kirchgemeindehaus,47.3027597,8.5934498
Erlenhöhe,47.3059617,8.6023505
Schulhaus,47.3023534,8.5987237
Rankstrasse,47.307183,8.5969928
Rebstrasse,47.2991585,8.602215
Sandfelsenstrasse,47.3072494,8.6001982
Allmend,47.3062526,8.6053307
Dietikon Bahnhof,47.4056407,8.4046893
Dettenbühl,47.3377134,8.4749076
Strumbergächer,47.3430515,8.4722416
Rehweid,47.3443365,8.4705095
Schürli,47.3336809,8.4775307
Lettenhau,47.4257694,8.4718724
Rapidplatz,47.4099955,8.4051199
Hofacker,47.3982727,8.4117926
Pestalozzi,47.414083,8.3997934
Schönenwerd,47.3972382,8.4240479
Sommerau,47.4027395,8.4054539
Badstrasse,47.3136193,8.5332978
Friedhof Adliswil,47.3069891,8.5294882
Feldblumenstrasse,47.3145282,8.5191795
Bodenacker,47.3159852,8.5179645
Landolt-Junker-Strasse,47.3035344,8.5223485
Krone,47.312759,8.527454
Hofackerstrasse,47.3149262,8.5359485
Grüt,47.3224767,8.5290614
Poststrasse,47.3132064,8.5252072
Zopf,47.3190036,8.5164629
Ahornweg,47.3191193,8.5341341
Moos,47.3253351,8.5311497
Tiefacker,47.3167313,8.5299211
Tobelhof,47.3092658,8.5284955
Rifertstrasse,47.3098661,8.5320006
Rütistrasse/Wacht,47.3070244,8.5321907
Wanneten-/Haldenstrasse,47.3061005,8.5228128
Friedhof Uetliberg,47.3587639,8.5006138
Dreispitz,47.410713,8.568193
Im Hüsli,47.3281945,8.512778
Im Walder,47.3480542,8.5742223
Gutstrasse,47.3718254,8.5064622
Friesenberghalde,47.3610542,8.5020635
Frymannstrasse,47.3356129,8.5187402
Sellenbüren,47.3432462,8.4821151
Bleiki,47.3331036,8.4886304
Bahnhof Wollishofen/Werft,47.348167,8.5343455
Hallenbad,47.4177019,8.5933701
Seerose,47.339415,8.5379188
Sihlweidstrasse,47.3266034,8.5142512
Sukkulentensammlung,47.3551164,8.5342806
Sunnau,47.3254742,8.5294666
Verenastrasse,47.3409236,8.5253632
Vulkanstrasse,47.3944845,8.4841564
Wonnebergstrasse,47.3517263,8.5667332
Langgrütstrasse,47.3738363,8.499881
Landiwiese,47.3510351,8.5342689
Marbachweg,47.3302999,8.5153034
Sackzelg,47.3741744,8.4954003
Schulhaus Altweg,47.372722,8.4942161
Schweizer Rück,47.3596716,8.5354583
Stockengut,47.3241961,8.5403907
Schwelle,47.3215248,8.54524
Schulhaus Dorfstrasse,47.3217357,8.5477658
Schoorenstrasse,47.3173172,8.5493835
Schooren,47.3177215,8.5533016
Sanatorium Kilchberg,47.3269858,8.5445121
Paradiesstrasse,47.3291911,8.5469887
Paradiessteig,47.3300767,8.5430991
Lindt & Sprüngli,47.3190447,8.5509526
Gemeindehaus,47.3248168,8.5452769
Asp,47.3218526,8.5352537
Kirche Kilchberg,47.3178576,8.5416366
Hornhaldenstrasse,47.3318117,8.5420539
Bendlikon,47.3221122,8.5503915
Gottlieb-Binder,47.3228818,8.5426586
Auf Brunnen,47.3186796,8.5456333
Bächlerstrasse,47.3291971,8.5395437
Alterszentrum Kilchberg,47.3198942,8.5407831
Glanzenberg,47.3986527,8.4195938
Neumattstrasse,47.3872976,8.4230283
Heinrich-Stutz-Strasse,47.3705548,8.4248856
Oberurdorf,47.3777584,8.4228297
Weidstrasse,47.3058015,8.5529358
Schlossstrasse,47.3139625,8.553964
Böndlersteig,47.3133695,8.5505328
Park im Grüene,47.3014041,8.5488046
Rebsteig,47.312375,8.5508348
Säumerstrasse,47.3080036,8.5462251
Dietikon Bahnhof,47.4058869,8.4043494
Dietikon Bahnhof,47.4059426,8.4043178
Dietikon Bahnhof,47.4057195,8.4044441
Dietikon Bahnhof,47.4059984,8.4042862
Dietikon Bahnhof,47.4057753,8.4044125
Dietikon Bahnhof,47.4058311,8.4043809
Langwies,47.3602798,8.4645741
Grindlen,47.2443047,8.5292627
Oberrifferswil,47.2420297,8.497528
Schützenhaus,47.2877579,8.5622335
Langnau-Gattikon Bahnhof,47.2872397,8.5436913
Riedmatt,47.2625627,8.5174885
Gattikerhof,47.2832198,8.5454053
Schlieren Zentrum/Bahnhof,47.3977845,8.4487158
Neumattstrasse,47.387324,8.423129
Waldegg Post,47.3681091,8.4626132
Rebhof,47.6737735,8.6315418
Gamlikon,47.3110972,8.4932352
Diebis,47.3484044,8.4767484
Aegerten,47.3205858,8.4905068
Bonstetten-Wettswil Bahnhof,47.3262027,8.468363
Wolfenhof,47.2943613,8.4855033
Allenwinden,47.2262388,8.5315394
Albisbrunn,47.239035,8.5390518
Kappelerstrasse,47.2218315,8.4995521
Allenwinden,47.2260786,8.5319955
Zürich Flughafen,47.4499735,8.5634839
Im Feld,47.5138865,8.5936868
Schlössli,47.3677613,8.447546
Schlössli,47.3683053,8.4482196
Meiershofstrasse,47.3969524,8.6131901
Hubertus,47.3775017,8.4988305
Hubertus,47.3772033,8.4982441
Sonne,47.3811057,8.4228027
Ristet,47.3654598,8.4287494
Neumatt,47.3871981,8.4203943
Glanzenberg,47.3987468,8.4195936
Glanzenberg,47.398693,8.4199404
Birmensdorferstrasse,47.3981751,8.4175915
Römerhof,47.3684437,8.5608667
Säumerstrasse,47.2022026,8.7080163
Höfli,47.2019923,8.7064958
Eggächer,47.3401214,8.4763918
Heissächerstrasse,47.3418044,8.474223
Bäumlisächer,47.3427348,8.4696785
Oberhusen,47.3376748,8.4779363
Witzberg,47.3701892,8.7714121
Witzberg,47.3696723,8.7706904
Feldblumenstrasse,47.314684,8.5190121
Bodenacker,47.3168883,8.5175608
Talgüetli,47.4451624,8.6200539
Chlupfgasse,47.4445726,8.6247644
Vogelsangstrasse,47.3835833,8.5491355
Unter Ort,47.2482403,8.6319957
Mettmenstetten Schulhaus,47.2442693,8.465062
Hinterbergstrasse,47.3800847,8.5545211
Reithy,47.2503854,8.608243
Luchswiesen,47.4073382,8.5853155
Luchswiesen,47.4069267,8.5866463
Bläsimühle,47.4150711,8.8035445
Dorf,47.3383634,8.4740784
Zürich Oerlikon,47.4114986,8.5441507
Dock E,47.4611582,8.5550495
Sonne,47.1901237,8.6456264
Dietikon,47.405805,8.404922
RBL Shuttle,47.4061198,8.4045717
Turbenthal Schloss,47.4355468,8.8489066
Zürich Hardbrücke,47.3851609,8.5173926
Zürich Hauptbahnhof,47.3781008,8.5393635
Bahnhof Tiefenbrunnen,47.3502185,8.5608023
Bahnhof Tiefenbrunnen,47.3502889,8.560732
Zürich Stadelhofen,47.3665643,8.5483858
Stettbach,47.3971522,8.5961074
Wallisellen,47.412625,8.5923797
Opfikon,47.4299507,8.5618129
Zürich Flughafen,47.4500978,8.5618985
Kloten,47.4486581,8.5837678
Bassersdorf,47.4385958,8.6264391
Dietlikon,47.4201837,8.6191982
Effretikon,47.4257472,8.6870086
Kemptthal,47.4528517,8.7058075
Illnau,47.4088849,8.7227071
Fehraltorf,47.385153,8.7500307
Pfäffikon,47.3671002,8.7847073
Kempten,47.3320309,8.8047716
Wetzikon,47.3180931,8.7922663
Aathal,47.3356752,8.7662781
Uster,47.3508125,8.7179334
Schwerzenbach,47.3844343,8.6587009
Dübendorf,47.4000538,8.6234006
Wetzikon Spital,47.3224411,8.8025658
Zürich Selnau,47.3724695,8.5318556
Zürich Binz,47.3628473,8.5180854
Zürich Triemli,47.3649741,8.4953498
Ringlikon,47.360255,8.4773761
Uetliberg,47.3518692,8.4874187
Zürich Giesshübel,47.3626083,8.5220149
Zürich Saalsporthalle,47.3580067,8.5218339
Zürich Brunau,47.3515976,8.5262233
Zürich Leimbach,47.3330734,8.5187267
Adliswil,47.3123072,8.524082
Sihlwald,47.2683235,8.5576283
Langnau-Gattikon,47.2874358,8.5439885
Zürich Wiedikon,47.3717117,8.5230648
Zürich Enge,47.3641833,8.5307605
Oberrieden Dorf,47.276842,8.5775571
Horgen Oberdorf,47.2586692,8.5900025
Bahnhof Hegi,47.501997,8.7706673
Winterthur,47.5003138,8.7239736
Zürich Tiefenbrunnen,47.3501172,8.5613415
Zürich Seebach,47.4185872,8.5442186
Zürich Affoltern,47.4209007,8.5081772
Regensdorf-Watt,47.4363997,8.4722646
Buchs-Dällikon,47.4532818,8.4373058
Stäffelistrasse,47.5046426,8.7726361
Otelfingen,47.4549968,8.3882578
Zollikon,47.3373683,8.5694921
Küsnacht Goldbach,47.3268474,8.5757474
Küsnacht,47.3191246,8.5805561
Erlenbach,47.3057693,8.5914617
Winkel,47.297289,8.598947
Herrliberg-Feldmeilen,47.2817974,8.6126897
Meilen,47.2696451,8.6442022
Uetikon,47.2591379,8.6788756
Talstrasse,47.266646,8.6836856
Winterthur Grüze,47.4987187,8.7510097
Winterthur Seen,47.4874314,8.7667533
Oberwinterthur,47.5076729,8.7601154
Seuzach,47.5356393,8.7390219
Dachsen,47.6670802,8.6138781
Marthalen,47.6312227,8.6560693
Andelfingen,47.5937702,8.6779013
Henggart,47.5645005,8.6850343
Hettlingen,47.5453546,8.6947652
Birmensdorf,47.357448,8.4373921
Glattbrugg,47.4308526,8.5589291
Rümlang,47.4540679,8.5326777
ETH Hönggerberg,47.4085765,8.5075367
Glaubtenstrasse,47.4139882,8.519617
Glaubtenstrasse,47.4145015,8.5192288
Hönggerberg,47.4049299,8.5051925
Hönggerberg,47.4050539,8.5051923
Glaubtenstrasse Süd,47.413557,8.5184871
Oberglatt,47.4704172,8.510537
Dielsdorf,47.4824141,8.4593678
Niederweningen,47.5113458,8.3694229
Niederglatt,47.4874769,8.5031904
Bülach,47.5237734,8.5365546
Embrach-Rorbas,47.5205595,8.5870215
Winterthur Wülflingen,47.5064599,8.6809643
Winterthur Töss,47.4897747,8.7092798
Lindenplatz,47.3872442,8.4864333
Lindenplatz,47.3867237,8.4861116
Bandwies,47.2574315,8.8496954
Max-Bill-Platz,47.4139318,8.5410969
Max-Bill-Platz,47.4141079,8.5410609
Hohenklingensteig,47.4014058,8.4901578
Mötteliweg,47.4139207,8.5265256
Mötteliweg,47.4140604,8.526102
Tüffenwies,47.3981058,8.4946825
Wartau,47.4026882,8.4920962
Winzerhalde,47.3999375,8.4946091
Winzerhalde,47.4001577,8.4946434
Albisrieden,47.374429,8.4844463
Albisrieden,47.3746745,8.4849011
Albisriederdörfli,47.3753316,8.4851077
Albisriederdörfli,47.3754399,8.4849232
Goldackerweg,47.3720801,8.4873906
Goldackerweg,47.3722424,8.4872712
In der Ey,47.3694574,8.4912776
In der Ey,47.3694779,8.4909866
Lindenplatz,47.3866524,8.4861457
Rautistrasse,47.3827695,8.4839137
Rautistrasse,47.3839919,8.4843433
Triemlispital,47.3660491,8.496962
Untermoosstrasse,47.3792486,8.4832275
Untermoosstrasse,47.380156,8.4834811
Triemli,47.3682787,8.4951558
Bahnhof Affoltern,47.4209422,8.5077671
Bahnhof Affoltern Süd,47.42062,8.5086288
Schauenberg,47.4160747,8.5070864
Schauenberg,47.4162639,8.5068977
Aubrigstrasse,47.2879033,8.5698955
Seehalde,47.2730986,8.5833153
Oberrieden Dorf Bahnhof,47.2765937,8.5774664
Seehaldenstrasse,47.2975417,8.5542632
Seehaldenstrasse,47.2980005,8.5537081
Schärbächli/Fähre,47.2589567,8.603155
Au,47.2467896,8.6436487
Schmiedstube,47.2277733,8.6704704
Stoffelstrasse,47.2414747,8.6515449
Staubeweidli,47.2215238,8.6865255
Richterswil,47.208552,8.7074819
Lufingen Dorf,47.4883656,8.5934676
Lufingen Dorf,47.4882492,8.5933932
Stäfa,47.2404715,8.7216408
Asylstrasse,47.2496313,8.7018531
Uerikon,47.2358983,8.7526216
Feldbach,47.2391708,8.7830688
Wermatswil Post,47.3620689,8.7458827
Räterschen,47.498776,8.7951493
Schottikon,47.5001031,8.8117369
Rikon,47.4450079,8.7964393
Wiesendangen,47.5255307,8.7760196
Rickenbach-Attikon,47.5353733,8.7890347
Glattfelden,47.5491168,8.5239614
Eglisau,47.572436,8.5165257
Hüntwangen-Wil,47.5811886,8.5126794
Rafz,47.6038125,8.5433523
Im Walder,47.1949264,8.679361
Buchs Industrie,47.4487004,8.4383812
Giessen,47.3889602,8.6959759
Trotte,47.2912198,8.5659568
Bahnübergang,47.3458894,8.566087
Bahnübergang,47.3460192,8.5657462
Gutenswil Unterdorf,47.3849552,8.7149755
Moorschwand,47.252505,8.5863823
Grossenacher,47.3821857,8.7169971
Alte Post,47.2620855,8.4204393
Toussen,47.264985,8.4318254
Hölibachstrasse,47.2683156,8.4326088
Bickwil,47.2697168,8.4285982
Unterlunnern,47.2632229,8.4095874
Wetzikon Friedhof,47.3272734,8.8096634
Butzenstrasse,47.3414345,8.5298638
Butzenstrasse,47.3415181,8.5294309
Im Hüsli,47.328401,8.5127823
Marbachweg,47.3304839,8.5155883
Sihlweidstrasse,47.326669,8.5142122
Verenastrasse,47.340951,8.5251301
Kunsteisbahn,47.3891832,8.6289703
Im Spitz,47.3653647,8.7723446
Pflegezentrum,47.3203537,8.7966503
Wetzikon Bahnhof,47.3184026,8.7918157
Wetzikon Bahnhof,47.3189252,8.7913259
Morgenthal,47.3918524,8.7728578
Tüfi,47.3918692,8.7746096
Matten,47.3705832,8.7766279
Lindenwiese,47.4262818,8.699233
Eselriet,47.4244297,8.7000402
Halden,47.3852148,8.7601787
Seuzach Bahnhof,47.5355121,8.7392428
Breitestrasse,47.5352196,8.7296035
Linde,47.4584686,8.4404153
Bethanien,47.3809183,8.5560856
Grünaustrasse,47.3949272,8.4902393
Zoo,47.3815217,8.5714692
Schützenbühl,47.4787592,8.7658424
Egg,47.3016366,8.6896369
Hinteregg,47.3057917,8.684208
Lindenplatz,47.3984426,8.6200722
Altried,47.4053953,8.5922199
Altried,47.4063347,8.5915216
Elektrowatt,47.3574109,8.5503705
Harossen,47.4713836,8.6830213
Goldbacherstrasse,47.3290598,8.5805028
Kantonsschule,47.504624,8.7396455
Widum,47.4342245,8.7633841
Chli-Hegi,47.5052265,8.780866
Sportplatz,47.5024301,8.7920501
Henggart Bahnhof,47.5639206,8.6849353
Dübendorf Bahnhof Nord,47.4005935,8.6236808
Innovationspark,47.4054836,8.6303041
Innovationspark,47.4057834,8.6308646
Flugplatz,47.4025916,8.627685
Altried,47.4061353,8.5911555
Chriesmatt,47.4055355,8.625134
Chriesmatt,47.405714,8.624937
Rundi,47.2705058,8.6824194
Forbüelstrasse,47.2672536,8.6871032
Brandrain,47.2716167,8.6863799
Kleindorf,47.2643832,8.6826942
Brandrain,47.2715496,8.6863197
Kleindorf,47.2640224,8.6825352
Forbüelstrasse,47.2672559,8.686901
Kleindorf,47.2640752,8.6830691
Binzigerstrasse,47.2689264,8.6903901
Uetikon Bahnhof,47.2592208,8.6788169
Unknown Station,47.2641642,8.683129
Binzigerstrasse,47.2684917,8.6903218
Oergelacher,47.268642,8.6795075
Bergheim,47.2722319,8.6848597
Rundi,47.270412,8.6819354
Im Geissacker,47.50997,8.7542479
Bürkliplatz,47.3668869,8.5403469
Herzogenmühlestrasse,47.407545,8.572685
Oberes Büel,47.5075248,8.7506146
Herdernstrasse,47.3852474,8.5078412
Rosenberg,47.5194029,8.7215364
Schützenhaus,47.5183604,8.7190243
Botanischer Garten,47.3592352,8.5580476
Freiestrasse,47.3628784,8.5628351
Freiestrasse,47.3628144,8.5626511
Central,47.3765086,8.544686
City Center,47.3970045,8.6166102
Hammerweg,47.5048645,8.7477856
Bergli,47.2577023,8.592397
Bergli,47.257975,8.5929179
Wannenthal,47.2565928,8.6023946
Stocker,47.2614905,8.5893121
Ebnetstrasse,47.2528362,8.5966834
Mühle Hegi,47.5061409,8.7726666
Hettlingen Dorf,47.5466865,8.709309
Hettlingen Dorf,47.5468313,8.7091018
Schwimmbad,47.4327653,8.5712623
Kunsthaus,47.3705261,8.548453
Zopfschmitten,47.1916846,8.6758729
Chrummbächli,47.2059343,8.6974969
Chrummbächli,47.2057498,8.6989074
Untere Schwanden,47.2060426,8.6870505
Wisli,47.2039666,8.7108136
Neuhus,47.2047463,8.7022485
Frohberg,47.1990482,8.6862876
Sagenbach,47.1971708,8.6822921
Schwyzerstrasse,47.2028519,8.7095732
Lindenplatz,47.3878755,8.4860271
Säumerstrasse,47.2021643,8.7076057
Pestalozzi,47.414279,8.3992154
Silbern,47.4182405,8.3929496
Tiefenhofweiher,47.234016,8.6601521
Tiefenhof,47.2345872,8.6621292
Lätten,47.2330667,8.6644721
Neudorf,47.2313045,8.6656759
Glärnisch,47.2300102,8.6677977
Schwanen,47.2296844,8.6700717
Coop,47.2297655,8.6731028
Schwanen,47.2296878,8.6709868
Büelen,47.2324403,8.6612087
Frohmatt,47.2296938,8.6626407
Hintere Rüti Ost,47.2353043,8.6359926
Schützenhaus,47.2415602,8.6450301
Schützenhaus,47.2417605,8.6455908
Stoffelstrasse,47.2414166,8.6506249
Grundstein,47.2421897,8.6548196
Gwad,47.2392392,8.6577533
Gwad,47.2396356,8.657476
Tiefenhofstrasse,47.2369074,8.6616893
Tiefenhofstrasse,47.2363093,8.6631771
Weinrebe,47.2315843,8.6720277
Hintere Rüti West,47.2357604,8.6361937
Beichlen,47.2074863,8.6633236
Weinrebe,47.2311665,8.6727232
Sonnenrainstrasse,47.2292709,8.6718228
Naglikonerweg,47.2480177,8.6354403
Alte Landstrasse,47.2471328,8.6350018
Seeguet,47.2494034,8.6331881
Meierhof,47.2231294,8.6817523
Boller,47.2215121,8.6821242
Schlossbergstrasse,47.225231,8.6750285
Meierhof-Rain,47.2226448,8.6800263
Mühlebach,47.2240001,8.6730043
Forschungsanstalt,47.2213487,8.6751386
Feld,47.2134626,8.6645468
Mühlestalden,47.1997577,8.6551148
Gumelenstrasse,47.2608977,8.5920192
Altes Gemeindehaus,47.2605454,8.5960788
Horgen Bahnhof,47.2616714,8.5957692
Horgen Bahnhof,47.2615803,8.5964323
Schönenberg Dorfhuus,47.1930802,8.6440794
Neubad,47.1939185,8.6361006
Aesch,47.1998949,8.6232266
Aesch,47.2009102,8.6229051
Müsli,47.2054407,8.6224016
Hirzel Kirche,47.2172203,8.6064817
Hirzel Kirche,47.2171484,8.6063756
Wolfisbühl,47.2258503,8.6041695
Wolfisbühl,47.2240966,8.6047749
Widenbach,47.2342823,8.5979143
Strickler,47.2298482,8.6008394
Neuhaus,47.2320384,8.5991426
Vorderklausen,47.2408114,8.596658
Hinterklausen,47.2431779,8.5937693
Wührenbach,47.2467336,8.5891304
Moorschwand,47.252857,8.5867786
Ebnetstrasse,47.2515709,8.5970285
Stocker,47.2609514,8.5895867
Forschungsanstalt,47.221514,8.6748829
Sandhof,47.2190214,8.6691283
Herrlisberg,47.2203604,8.659592
Herrlisberg,47.2197529,8.6600688
Oedischwend,47.2265404,8.6472505
Oedischwend,47.2264601,8.6471968
Chalchtaren,47.2303373,8.6405836
Burstel,47.2256801,8.6255684
Burstel,47.2254083,8.6252609
Chotten,47.2210487,8.6318642
Mugern,47.2176174,8.6351438
Schluchtal,47.2149989,8.6411059
Hütten Schöntal,47.1763663,8.6698507
Hütten Schöntal,47.1764191,8.6701778
Hütten Friedhof,47.1760362,8.6609086
Wolfbühl,47.1841731,8.652208
Geeren,47.2841567,8.4090013
Reithy,47.2501906,8.608207
Waidli,47.2545103,8.6054008
Waldegg,47.2451318,8.6084298
Hanegg,47.2311748,8.6123092
Waldhof,47.2329582,8.6203986
Baumgärtlihof,47.2590794,8.5997587
Dorfgasse,47.2600517,8.5989292
Horgen Bahnhof,47.2616261,8.5960927
Töbelibach,47.2232481,8.6692669
Rötiboden,47.2272444,8.6636427
Rötiboden,47.2267182,8.6645925
Hallenbad/Frohmatt,47.2289527,8.6611349
Hallenbad/Frohmatt,47.2293215,8.6609356
Tobelrain,47.2306341,8.6595873
Hangenmoos,47.2340986,8.6536036
Hangenmoos,47.2344386,8.652901
Winterberg,47.2369945,8.6455437
Winterberg,47.2368712,8.6464774
Töbelibach,47.2233808,8.6691132
Au Bahnhof,47.2464413,8.6447547
Au Bahnhof,47.2466847,8.6436413
Aubrücke,47.2459653,8.6492442
Strandbad,47.2404725,8.6588925
Strandbad,47.2398662,8.659078
Appital,47.2403861,8.644773
Moosacher,47.2403377,8.6388873
Meilibach,47.2513344,8.6261885
Rietli,47.2531814,8.6197084
Käpfnach,47.2544493,8.6160445
Käpfnach,47.2546376,8.6150364
Rotweg,47.2565745,8.6088096
Schärbächli/Fähre,47.2593651,8.6020579
Gulmenmatt,47.2314842,8.6594913
Gulmenmatt,47.2314563,8.6602556
Krähbach,47.2308977,8.6643946
Krähbach,47.2310348,8.6640099
Kehlhof,47.2342261,8.7364145
Rebgartenstrasse,47.1754496,8.6630658
Sädlenweg,47.3677592,8.4878658
Laubisrüti,47.2385593,8.748142
Wannerstrasse,47.2630027,8.5909113
Wannerstrasse,47.2630306,8.5908753
"Uster, Stadthaus",47.3479795,8.7189463
Frohberg,47.2481399,8.7397174
Wässerwies,47.243438,8.7280014
Allmendhof,47.2596769,8.6944254
Seeweg,47.3460891,8.6963015
Seeweg,47.3461056,8.6966648
Rietlirain,47.2346933,8.7455145
Männedorf Spital,47.2515298,8.6962265
"Bertschikon bei Gossau, Dorf",47.3204559,8.7577157
Kalkbreite/Bhf. Wiedikon,47.3743082,8.5213622
Kalkbreite/Bhf. Wiedikon,47.3741738,8.5210322
Albisriederplatz,47.3781643,8.5095715
Albisriederplatz,47.3780812,8.5091612
Lindenplatz,47.3878661,8.4855507
Bahnhof Rüschlikon,47.3083997,8.5535756
Bodengasse,47.3099236,8.5531581
Gewerbestrasse,47.2867162,8.5644819
Scheller,47.2695438,8.5865871
Horgen Bahnhof,47.2615005,8.5959293
Horgen Bahnhof,47.2615466,8.5955812
Horgen Bahnhof,47.2614583,8.596235
Teufenbach,47.2562105,8.6052092
Schnegg,47.2482703,8.6054728
Bergli,47.2577144,8.5935634
Bocken,47.2445478,8.6105924
Bocken,47.2445838,8.610496
Moorschwand,47.2533141,8.587446
Nordecke,47.2598496,8.5779836
Schönenwerd,47.3972073,8.4244665
Widmerheim,47.2666996,8.5846967
Mettli,47.2824175,8.5728653
Platte,47.2899437,8.568526
Platte,47.2900524,8.5683276
Aubrigstrasse,47.2884726,8.5695901
Stocker,47.2615416,8.5888699
Stocker,47.2622678,8.5881222
Tannenbach,47.2691095,8.5824744
Sihlwald Bahnhof,47.268511,8.5572666
Wädenswil Bahnhof,47.229229,8.6746477
Wädenswil Bahnhof,47.229248,8.6747127
Wädenswil Bahnhof,47.2292671,8.6747777
Wädenswil Bahnhof,47.2292862,8.6748429
Wädenswil Bahnhof,47.2293024,8.674908
Wädenswil Bahnhof,47.2293244,8.6749734
Althard,47.4383632,8.4699788
Altmoos,47.4759895,8.4548328
Bezirksgebäude,47.4822655,8.453012
Adlikon Dorf,47.4481283,8.4664536
Regensberg Dorf,47.4829481,8.4363191
Furtbächli,47.4444576,8.4666689
Furtbächli,47.4445547,8.4665423
Hirsmühle,47.4822023,8.4446493
Höfli,47.4809515,8.4368759
Höfli,47.480999,8.4366956
Gemeindehaus,47.3252111,8.5451704
Schlimbergstrasse,47.3246627,8.5429318
Schoorenstrasse,47.3173048,8.5495208
Schwelle,47.321899,8.5452007
Alterszentrum Kilchberg,47.3197402,8.5409521
Ahornweg,47.3187285,8.5343003
Hofackerstrasse,47.3152412,8.5357025
Badstrasse,47.3137724,8.5342515
Tiefacker,47.3164641,8.5300388
Krone,47.3131564,8.5276818
Sunnau,47.3266401,8.5295702
Zopf,47.3193204,8.5162666
Hornhaldenstrasse,47.3315825,8.5422321
Landolt-Junker-Strasse,47.3032056,8.5222421
Wanneten-/Haldenstrasse,47.305593,8.522336
Schulhaus Kopfholz,47.3086685,8.5351369
Aegertli,47.2971492,8.5596507
Rudishaldenstrasse,47.2933783,8.5592803
Rote Fabrik,47.3429351,8.5359179
Seerose,47.3385681,8.538342
Landiwiese,47.3499203,8.5343193
Schweizer Rück,47.3593467,8.5354805
Sukkulentensammlung,47.3547264,8.5341954
Paradiessteig,47.3292104,8.5432375
Paradiesstrasse,47.3283095,8.5474189
Bodengasse,47.3107671,8.5525354
Schlossstrasse,47.3135194,8.5536283
Breitloo,47.3260081,8.539409
Obere Hornhalde,47.3315647,8.5381935
Giessen,47.2238273,8.6824896
Aubrücke,47.2458064,8.6497073
Schulstrasse,47.4307263,8.5737542
Schulstrasse,47.4309268,8.5737113
Enderholz,47.2254284,8.6106029
Obstgarten,47.2847519,8.5512262
Altersheim,47.2861878,8.5338134
Unterrengg,47.28096,8.537431
Tägermoos,47.3256847,8.5939681
Tägermoos,47.3259502,8.5939871
Schiffbau,47.3883276,8.5202169
Schiffbau,47.388295,8.5200742
Bäuler,47.4360968,8.5588187
Dietlikon Bahnhof,47.4200371,8.6189393
Berglistrasse,47.5238446,8.5459013
Einkaufszentrum Süd,47.5090148,8.5395889
Kaffeestrasse,47.5119077,8.5360205
Fuhrstrasse,47.5096241,8.5156084
Hohfuri,47.525779,8.5441974
Kaserne,47.5130581,8.5257374
Mettmenriet,47.5123312,8.5435101
Niederflachs,47.5153811,8.5307908
Höri Schulhaus,47.5091427,8.5040658
Rümlang Oberdorf,47.4519693,8.5301426
Rümelbach,47.4499023,8.5401061
Schuemacher,47.5291222,8.5443328
Soligänter,47.5284225,8.5419601
Tiefengasse,47.5146822,8.5331176
Hallenbad,47.4175159,8.5931078
Glatt (Bus),47.409324,8.5953146
Bahnhof Oerlikon,47.4107046,8.5459087
Dreispitz,47.4108148,8.5671577
Hallenbad Oerlikon,47.4107647,8.5562254
Hallenbad Oerlikon,47.4107529,8.5554806
Zwinglihaus,47.3713387,8.5161478
Zwinglihaus,47.3713935,8.5160931
Zwinglihaus,47.3718076,8.516281
Zwinglihaus,47.3720541,8.5166966
Im Langacher,47.3645208,8.6852629
Im Langacher,47.3645045,8.6858661
Hallenbad,47.6384674,8.600213
Schulplatz,47.6431622,8.6009483
Friesenberghalde,47.3611514,8.5025578
Dübendorf Bahnhof,47.3998941,8.623414
Oberstufe/Altrüti,47.3000175,8.7670025
Hedy Hahnloser,47.4838871,8.6957723
Sprecherstrasse,47.3673896,8.5527098
Bertastrasse,47.3736025,8.5138075
Bertastrasse,47.3740952,8.513255
Hardplatz,47.3822371,8.5142241
Hardplatz,47.3820895,8.5140839
Altes Krematorium,47.3775581,8.5082147
Vogelsangstrasse,47.383472,8.5492525
Scheuchzerstrasse,47.3876341,8.5442681
Scheuchzerstrasse,47.3877437,8.5440834
Thujastrasse,47.3501096,8.527808
Thujastrasse,47.3503403,8.5278169
Fellenbergstrasse,47.3755857,8.4886368
Gutstrasse,47.3716528,8.5068044
Im Gut,47.3738579,8.5031615
Langgrütstrasse,47.3737965,8.500498
Sackzelg,47.3746035,8.4949498
Sackzelg,47.3745874,8.4950547
Rigiblick,47.387403,8.5540793
Wil,47.3450674,8.7084588
Wil,47.345204,8.7074123
Hürstholz,47.4169637,8.5229444
Hürstholz,47.4168324,8.5228315
Seebach,47.4219623,8.5499933
Staudenbühl,47.4199305,8.5350704
Seebach,47.4213477,8.5496871
Seebach,47.4218564,8.5495391
Sihlpost/HB,47.3761461,8.5341935
Sihlpost/HB,47.3762517,8.5343577
Hardplatz,47.3831135,8.5148243
Müselacher,47.4290225,8.6966319
Wattspitz,47.4270875,8.6948425
Wattspitz,47.4271128,8.6944551
Kehlhof,47.4345169,8.8566736
Weisslingen Dorf,47.4315561,8.7636432
Oberhofen,47.4343113,8.879105
Moosburg,47.4213359,8.691357
Attikerstrasse,47.5257269,8.7886534
Glattbrugg Post,47.4304471,8.5609134
Unterteufen,47.5513288,8.5666831
Hirschen,47.5307925,8.5748324
Im Feld,47.5135188,8.5936925
Alte Brücke,47.5304635,8.580919
Alte Brücke,47.5303746,8.5807515
Hard,47.5226552,8.5855015
Hard,47.5227155,8.5855335
Teufen Schulhaus,47.5471155,8.5677836
Kaiserhof,47.572332,8.5279851
Gries,47.3861856,8.6790975
Storchenbrücke,47.4904326,8.7172075
Storchenbrücke,47.4907346,8.7174555
Tössfeld,47.4919882,8.7136596
Rietli,47.4444942,8.6366159
Erlenhöhe,47.3062032,8.6041506
Im Wingert,47.4011048,8.5091307
Müselacher,47.322537,8.755984
Schmiede Wiedikon,47.3694404,8.5207381
Bahnhof Stettbach,47.3969747,8.5951692
Dübendorf Bahnhof,47.4000315,8.6230896
Hoffnung,47.3960497,8.5997063
Meiershofstrasse,47.3965971,8.6129791
Meiershofstrasse,47.3967172,8.6138713
Weissenbrunnen,47.3560443,8.4460309
Weissenbrunnen,47.3561205,8.4460116
Männedorf Bahnhof,47.252861,8.6933912
Männedorf Bahnhof,47.2529613,8.6933167
Männedorf Bahnhof,47.2529782,8.6931386
Männedorf Bahnhof,47.2530663,8.693099
Dielsdorf Bahnhof,47.4829015,8.4588932
Bruderhaus,47.4782515,8.7251392
Kapelle,47.6710686,8.6347696
Kapelle,47.670589,8.635516
Asylstrasse,47.2496101,8.7019311
Waltenstein Berg,47.4799943,8.815541
Bächli,47.4392273,8.6354448
Wermatswil Post,47.3621608,8.7467122
Ledi,47.3633989,8.7365992
Ledi,47.3632066,8.7376738
Geeringstrasse,47.4144738,8.4801391
Zumikon,47.3320659,8.623614
Forch,47.3252232,8.6480893
Maiacher,47.3281674,8.6312121
Scheuren,47.3225086,8.6595963
Neue Forch,47.3257763,8.6379333
Fischenthal,47.3334192,8.9232896
Wald ZH,47.2727268,8.9139616
Bahnhof Wiedikon,47.3716237,8.5237479
Wonnebergstrasse,47.3519687,8.56629
Im Gut,47.3735538,8.5032613
Kappel a.A. Kloster,47.2276335,8.526395
Kappel a.A. Kloster,47.2277542,8.5261248
Gättern,47.3619533,8.4652705
Gessnerstrasse,47.2620034,8.4153857
Bachstrasse,47.2632137,8.425004
Rigiblick,47.2779397,8.4051931
Sädlenweg,47.367786,8.4870538
Binz Center,47.3618687,8.5111149
Zoo,47.381589,8.5713863
Bändliweg,47.3966116,8.4866245
Zielweg,47.3587251,8.4975842
Hegibachplatz,47.3614479,8.5596669
Schönauring,47.4257472,8.5364704
Schönauring,47.4263897,8.5365942
Waidhof,47.4237257,8.5228475
Bahnhof Wiedikon,47.3714005,8.5244978
Goldbrunnenplatz,47.3701338,8.5140936
Geeren,47.2843786,8.4094456
Laubegg,47.3586691,8.5175096
Bahnhofquai/HB,47.377607,8.5419903
Bahnhof Stettbach,47.3967689,8.5953981
Herzogenmühlestrasse,47.4071319,8.5727865
Bahnhof Oerlikon,47.4114718,8.5447944
Weihersteig,47.3980224,8.5282934
Einfangstrasse,47.4159706,8.5126056
Triemli,47.3680363,8.4956661
Triemli,47.368017,8.4952854
Grossacher,47.2661179,8.491259
Talacker-Windegg,47.405413,8.44782
Uttenberg,47.234236,8.4489033
Langfuren,47.3232882,8.4902027
Haltenreben,47.5166571,8.6786471
Allmendhof,47.2594449,8.695326
Furttalstrasse,47.4554226,8.4377132
Staltigstrasse,47.5564938,8.5044996
Adlikon Dorf,47.4478012,8.4665147
Ruchwiesen,47.4809527,8.4639124
Seeguet,47.2494283,8.633117
Illnau Dorfplatz,47.4074814,8.7239606
Elgg Schloss,47.4823599,8.8654523
Herti,47.4165406,8.5792566
Otelfingen Golfpark,47.4558122,8.4020993
Wallberg,47.3894662,8.6865665
Hörnlistrasse,47.4459046,8.530658
Hörnlistrasse,47.4455046,8.5306767
Dietlikon Zentrum,47.4230083,8.618239
Rebackerweg,47.4285443,8.6195351
In Lampitzäckern,47.4171358,8.6150482
Fuchshalde,47.420334,8.6127623
Riedenerstrasse,47.4226494,8.6141605
Riedenerstrasse,47.422565,8.6141276
Lettenstrasse,47.4245024,8.6119065
Lettenstrasse,47.4244567,8.6119381
Neugut,47.2583312,8.807177
Wihalde,47.2636793,8.8145245
Bubikon Dorf,47.2683292,8.8190443
Wolfhausen Zentrum,47.2575261,8.8020108
Oberwolfhausen,47.2578464,8.796282
Hüebli,47.2543632,8.794868
Bad Kämmoos,47.2609373,8.8305417
Neuwisen,47.4163194,8.6342349
Linde,47.4584319,8.4401482
Drei Eichen,47.1918952,8.6798687
Neeserweg,47.3906714,8.4745749
Neeserweg,47.390597,8.4747549
Stapferstrasse,47.362955,8.7441405
Krematorium Nordheim,47.4055237,8.5279242
Blattenbach,47.2769845,8.8992914
Sportstrasse,47.266754,8.9193074
Sportstrasse,47.2668374,8.9191503
Bäretswil Bahnhof,47.3374075,8.8514212
Petermoos,47.4577292,8.4426222
Thalheim an der Thur,47.5784442,8.7543876
Thalheim an der Thur,47.5779611,8.7547013
Männedorf,47.2532897,8.6927615
Bärenplatz,47.3355067,8.8562626
Bubikon,47.2708394,8.8226755
Hinwil,47.3000892,8.8397603
Meilen Bahnhof,47.2692923,8.6452821
Zweidlen,47.5704259,8.4679199
Saland,47.3942582,8.8542313
Turbenthal,47.4373149,8.8439327
Wila,47.4177834,8.8485378
Saland Dorf,47.390804,8.8531072
Saland Dorf,47.3907977,8.8529671
Thalheim-Altikon,47.5695683,8.7576593
Ossingen,47.6145929,8.7240978
Stammheim,47.6348333,8.7888414
Feuerthalen,47.692149,8.6459368
Schöfflisdorf-Oberweningen Bahnhof,47.4981183,8.4121511
Pfungen,47.5160774,8.6466862
Pfungen Bahnhof,47.5161548,8.6467587
Charrhalten,47.2769187,8.663429
Bezibüel/Chilchbüel,47.2790793,8.6630904
Neubruch,47.4822634,8.6995591
Neubruch,47.4826424,8.6991626
Dammstrasse,47.2546879,8.6921999
Mies,47.2391353,8.7404144
Moritzberg,47.238646,8.7501969
Marthalen Bahnhof,47.6319262,8.6561247
Bännebrett,47.5041402,8.7836108
Oetwil am See Zentrum,47.2700275,8.7213211
Oetwil am See Zentrum,47.2701251,8.7210827
Frowiesstrasse,47.3388196,8.8434763
Jonamarkt,47.2589876,8.8488867
Rekrutierungszentrum,47.2598299,8.8434077
Eichberg,47.249346,8.7726237
Eichtal,47.2493334,8.7784103
Hofacherstrasse,47.2462004,8.7749367
Holflüe,47.2492917,8.7682678
Lättenmoos,47.2755072,8.8257918
Lättenmoos,47.2753905,8.8252245
In der Au,47.2724227,8.6651556
Tramstrasse,47.2655687,8.678016
Zur Au,47.2731117,8.6618065
Zur Au,47.2734405,8.6618058
Vollenweid,47.2596925,8.5101033
Kleinandelfingen Bad,47.6021401,8.6876113
Hegifeld,47.5064661,8.7602254
Hegifeld,47.5067964,8.7608761
Gattikerhöhe,47.2858575,8.555164
Bertschikon Dorf,47.3203433,8.7574447
"Gossau ZH, Mitteldorf",47.3073944,8.7596398
"Gossau ZH, Zentrum",47.3057865,8.7585979
Tannenberg,47.3071162,8.7658617
Tannenberg,47.3069495,8.7651994
Gossau Mitteldorf,47.3074189,8.7597483
Fuchshalde,47.4203126,8.6127491
In Lampitzäckern,47.4172309,8.6149237
Pünten,47.4285181,8.6164372
Dietlikon Zentrum,47.4228862,8.6183418
Schwimmbad,47.4325632,8.5717736
Neuwisen,47.4159435,8.6347627
Staltigstrasse,47.5564413,8.5045804
Zweidlergraben,47.5648785,8.4772316
Unterhofen,47.3061825,8.7543187
Haupteingang,47.3851274,8.5749596
Masoala Regenwald,47.3862311,8.577711
Niederholz,47.2828098,8.9266596
Nordeck,47.268792,8.9152605
Pfadacher,47.3294792,8.8132772
Affoltern a.A. Bahnhof,47.2761658,8.4469559
Samstagern,47.1916017,8.6860081
Kilchberg,47.3244752,8.5480578
Oberrieden,47.2796641,8.5784107
Strick,47.2973138,8.7824451
"Ottikon (Gossau), Kreisel",47.295724,8.7788638
Affoltern am Albis,47.2761701,8.4468044
Bonstetten-Wettswil,47.3258145,8.4682433
Burghalden,47.2086659,8.6928484
Hedingen,47.2988097,8.4459976
Horgen,47.2614564,8.5968943
Knonau,47.2202662,8.4667352
Rüschlikon,47.307024,8.5552815
Thalwil,47.296014,8.5648378
Wädenswil,47.2292959,8.6751853
Zürich Altstetten,47.3913167,8.4893332
Zürich Wollishofen,47.3477819,8.5337381
Urdorf,47.3908516,8.4347526
Bahnhof Oerlikon,47.4114541,8.5447442
Rebhof,47.6734812,8.6317734
RBL Ost,47.4153503,8.389839
Laufenbach,47.2623074,8.8651236
Gubel,47.2605137,8.8621237
Rosenberg,47.5185478,8.7211577
Sonne,47.3817043,8.4226658
Forrenbergstrasse,47.5314298,8.7285419
Forrenbergstrasse,47.5317852,8.7286063
Bergwerk,47.2551623,8.6122415
Zürich HB SZU,47.3773718,8.5394445
Schanzackerstrasse,47.3920813,8.5475718
Uitikon Waldegg,47.366016,8.4658341
Zürich Manegg,47.3378276,8.5197354
Sihlau,47.3032402,8.5253036
Sood-Oberleimbach,47.3195841,8.5214698
Wildpark-Höfli,47.2965453,8.5355864
Bahnhof Stettbach,47.3966677,8.5959542
Hinwil Center Ost,47.3052106,8.8207673
Hinwil Center Ost,47.3054003,8.8203974
Hinwil Dorf,47.3024863,8.8430179
Hinwil Dorf,47.3025708,8.8428487
Industriestrasse,47.3039166,8.8283674
Industriestrasse,47.3039612,8.8285699
Wetzikon Bahnhof,47.3186268,8.7917889
Hofwiesen,47.4267449,8.618803
Martinsmühle,47.5231408,8.5173078
Herdlen,47.4343324,8.6732356
Oberwis,47.4313743,8.6782318
Oberwis,47.4316604,8.6778111
Effretikon Bahnhof,47.4254379,8.6863481
Eschikon,47.4479027,8.6820101
Eschikon,47.4482329,8.6825193
Gerenhalde,47.4315006,8.668118
Neumarkt,47.3729429,8.5473008
Tablat,47.4113093,8.8600918
Regensdorf-Watt Bahnhof,47.4367089,8.4727272
Türlersee,47.2675199,8.5125912
Türlersee,47.2674479,8.5127154
Bucheggplatz,47.3980252,8.5335696
Rüti Bahnhof,47.260144,8.8546253
Rossau,47.227024,8.4821337
Brunnenhof,47.4019585,8.5349477
Dammstrasse,47.2545523,8.6923248
Fischenthal Bahnhof,47.3332904,8.9223988
Wetzikon Bahnhof,47.318794,8.7916065
Wetzikon Bahnhof,47.3184478,8.7919834
Wetzikon Bahnhof,47.3183225,8.7921222
Wetzikon Bahnhof,47.3185737,8.7916151
Escher-Wyss-Platz,47.3908987,8.5227339
Wissenbach,47.2347345,8.4739529
Rossauerstrasse,47.2422773,8.4644877
Galgenbuck,47.6370875,8.6186228
Psychiatrische Uniklinik,47.6359035,8.6067869
Bahnhof Hardbrücke,47.3852824,8.5172531
Heligenmattstrasse,47.3348455,8.4365368
Appenzellerstrasse,47.3988837,8.508995
Dietikon,47.4048271,8.4053982
Friedlimatt,47.3592933,8.6245673
Kyburg Ausserdorf,47.4534922,8.743347
Nürensdorf Zentrum Süd,47.4462132,8.6495006
Lindau Dorf,47.4414593,8.6714259
Lindau Dorf,47.4415506,8.671581
Winterberg Dorf,47.4563493,8.6931514
Winterberg Dorf,47.4564733,8.6929448
Wältiwis,47.4545589,8.6962625
Wältiwis,47.4546978,8.6963026
Güterbahnhof,47.3804949,8.519535
Lindauerstrasse,47.4440944,8.6523605
Lindauerstrasse,47.44442,8.6514152
Birmensdorf Bahnhof,47.356778,8.4395078
Sternen Oerlikon,47.4102351,8.5468917
Sternen Oerlikon,47.410225,8.5467743
Auf Dorf,47.256674,8.7027976
Beichlen,47.2685802,8.7142486
"Oetwil am See, Beichlen",47.2690885,8.7142272
Bergstrasse,47.2697577,8.7180484
"Oetwil am See, Bergstrasse",47.2698254,8.7182654
Widenbad,47.2614392,8.7108896
"Männedorf, Widenbad",47.2616919,8.7110173
Dorfstrasse,47.3171268,8.4634422
Bahnhof Stettbach,47.3967758,8.5956892
Bahnhof Stettbach,47.3968744,8.5954283
Itschnach Fallacher,47.3289269,8.6058624
Sonne,47.1904418,8.6453417
Schaufelbergerstrasse,47.3689857,8.502576
Schaufelbergerstrasse,47.3689548,8.5023196
Marthalen Bahnhof,47.6317405,8.6561839
Pistenende,47.4836468,8.5276586
Pistenende,47.4846612,8.5280104
Bahnhof Ost,47.2827754,8.6121025
Ifangstrasse,47.4482579,8.5358016
Chilestieg,47.4468313,8.5257312
Heuelstrasse,47.4519652,8.5285357
Mettmenstetten Zentrum,47.2436885,8.4636381
Milchbuck,47.3981718,8.5419329
Rainstrasse,47.3650302,8.7973188
Rainstrasse,47.3649448,8.7973268
Mettlenstrasse,47.3613779,8.7920081
Bubikon Bahnhof,47.2707531,8.8225309
Löwen,47.4435446,8.6280468
Brunnenhof,47.4022321,8.5352308
Soliboden,47.526561,8.5389957
Schlieren,47.3991221,8.4473957
Zürich Wipkingen,47.3930555,8.5293157
Messe/Hallenstadion,47.4107102,8.5528703
Brütten Zentrum,47.4720175,8.676499
Fernbus-Haltestelle Lagerhaustrasse,47.4976792,8.7232135
Bahnhof Oerlikon Nord,47.4124494,8.5441173
Bahnhof Oerlikon Nord,47.4123095,8.5437583
Landhus,47.2799766,8.5005692
Landhus,47.2793782,8.5010504
Rüti,47.260352,8.8543594
Salzweg,47.3874783,8.4721223
Bülach Spital,47.5207612,8.5339352
Sonnenberg,47.2935557,8.5563654
Sonnenberg,47.2942565,8.5560531
Dörfli,47.2506961,8.7632277
Lindenplatz,47.5106042,8.6938265
Kaeng Krachan Elefantenpark,47.3876414,8.5763792
Bahnhof Altstetten Nord,47.3924007,8.4896932
Seebacherplatz,47.4200347,8.5477979
Seebacherplatz,47.4195588,8.5482077
Seebach,47.4217102,8.5497203
Ausserdorfstrasse,47.4244623,8.5487916
Ausserdorfstrasse,47.4245546,8.5484769
Birch-/Glatttalstrasse,47.4277586,8.5459753
Birch-/Glatttalstrasse,47.4270751,8.5463343
Käshaldenstrasse,47.4298721,8.5410522
Käshaldenstrasse,47.4300358,8.541002
Köschenrüti,47.4290653,8.5372228
Köschenrüti,47.4289976,8.5369777
Himmeri,47.4200258,8.5386879
Himmeri,47.4199365,8.5385391
Bollingerweg,47.4142672,8.5380161
Bollingerweg,47.4141593,8.5378746
Sternen Oerlikon,47.4101912,8.5459827
Sternen Oerlikon,47.4095511,8.5464169
Friedackerstrasse,47.405682,8.553891
Friedackerstrasse,47.4060425,8.5531938
Waldgarten,47.4046894,8.5574671
Waldgarten,47.4044622,8.5580027
Frohburg,47.4042572,8.562251
Frohburg,47.4040604,8.562569
Friedrichstrasse,47.4037936,8.5680387
Friedrichstrasse,47.4039893,8.5690353
Schwamendingerplatz,47.4049866,8.5728628
Schwamendingerplatz,47.4048265,8.5713202
Im Hagacker,47.3596507,8.5074539
Im Hagacker,47.3595021,8.507411
Rotbuchstrasse,47.3909766,8.5363598
Rotbuchstrasse,47.3909112,8.536181
Neuaffoltern,47.411588,8.5261706
Neuaffoltern,47.4122821,8.5241459
Neuaffoltern,47.4115582,8.5253677
Friesenbergstrasse,47.3623036,8.5049673
Friesenbergstrasse,47.3620532,8.5049716
Hegianwandweg,47.3565103,8.5100079
Hegianwandweg,47.3567206,8.5099839
Nordstrasse,47.3883965,8.5364426
Bucheggplatz,47.398547,8.5331344
Bucheggplatz,47.3981508,8.5332775
Hungerbergstrasse,47.4213262,8.5016264
Hungerbergstrasse,47.4208551,8.5021615
Am Wildbach,47.3901186,8.7477844
Regensbergbrücke,47.4091976,8.5390267
Regensbergbrücke,47.4090258,8.5392117
Oberwiesenstrasse,47.4103668,8.5330379
Oberwiesenstrasse,47.410503,8.5328695
Unteraffoltern,47.4240373,8.5112796
Dunkelhölzli,47.3887407,8.4704061
Dunkelhölzli,47.3887605,8.4702934
Rautihalde,47.3863613,8.4738486
Hegibachplatz,47.3613364,8.5607175
Winzerstrasse,47.4037876,8.4861693
Waidspital,47.3990508,8.5218174
Krematorium Nordheim,47.4047209,8.5282788
Bahnhof Wiedikon,47.371822,8.5235129
Lindenplatz,47.3878323,8.4855348
Escher-Wyss-Platz,47.3898356,8.5240242
Kirche Fluntern,47.3765498,8.5602387
Rigiblick,47.3876544,8.5537412
Kunsthaus,47.3703356,8.548607
Fellenbergstrasse,47.3756923,8.4874517
Gesundheitszentrum,47.4795008,8.4506325
Volketswil Zentrum,47.3891318,8.6806512
Volketswil Zentrum,47.3892186,8.6815943
Eichstrasse,47.3951138,8.6817543
Eichstrasse,47.3952856,8.6814648
Bisikon Dorf,47.4125114,8.6953645
Bodenacher,47.4045667,8.6799205
Klusplatz,47.3641694,8.5668016
Klusplatz,47.3642696,8.5660198
Klusplatz,47.3641975,8.5657605
Kapfstrasse,47.3610338,8.5711797
Kapfstrasse,47.3612029,8.5709977
Schlyfi,47.3629076,8.5744038
Schlyfi,47.3623541,8.5741651
Waserstrasse,47.35851,8.5834916
Zentrum Witikon,47.3581882,8.5875082
Zentrum Witikon,47.3583644,8.5859938
Berghaldenstrasse,47.3586998,8.590632
Loorenstrasse,47.3594066,8.5947617
Zweiackerstrasse,47.3569131,8.5980978
Zweiackerstrasse,47.3570804,8.598081
Kienastenwies,47.3552417,8.6008123
Triemli,47.3679906,8.4953967
Nürenbergstrasse,47.3920208,8.5335478
Nürenbergstrasse,47.3926764,8.532598
Mittelleimbach,47.3232176,8.514582
Dorf,47.3380496,8.4741052
Autobahn,47.5121103,8.6886743
Seebacherplatz,47.4199248,8.5483842
Waidspital,47.3991621,8.5217468
Waidbadstrasse,47.3989894,8.5137239
Waidbadstrasse,47.3989796,8.5133509
Auzelg Ost,47.4134471,8.5719336
Auzelg,47.4164567,8.5686014
Auzelg,47.4163556,8.5690137
Rennweg,47.2457753,8.461474
Mettmenstetten Oberdorf,47.24633,8.4691527
Winkel Zentrum,47.4926359,8.5523838
Scheuren Station,47.3224505,8.6596231
Bodenacher,47.3612252,8.6385733
Buchholz,47.360876,8.5886419
Buchzelgstrasse,47.3596963,8.5854586
Buchzelgstrasse,47.3589023,8.58508
Loorenstrasse,47.3599915,8.5955108
Friedhof Witikon,47.3613403,8.6028281
Friedhof Witikon,47.3613799,8.6021747
Glockenacker,47.3609411,8.5993507
Glockenacker,47.3609124,8.5985607
Lilienberg,47.2780936,8.4666334
Krematorium Nordheim,47.4053998,8.5280851
Seebach,47.4220246,8.5498006
Glatt (Bus),47.4091377,8.5954252
Messe/Hallenstadion,47.4106546,8.5517015
Sonnental,47.3954048,8.6042505
Sonnental,47.3952081,8.6035025
Sonnental,47.3956642,8.6031386
ETH Zentrum,47.3762232,8.5470041
Leutschenbach,47.4142373,8.5514629
Kalchbühlweg,47.340688,8.5314759
Morgental,47.3434129,8.5302962
Schmiede Wiedikon,47.370152,8.5190267
Dorfzentrum,47.481811,8.4535841
Dällikon Industrie,47.4450497,8.4387465
Watt Dorf,47.4420173,8.4804918
Watt Dorf,47.4426346,8.4810835
Obstgarten,47.4284829,8.4688655
Watt Schulhaus,47.4439589,8.4778096
Watt Schulhaus,47.444046,8.4774453
Sonnhalde West,47.4531864,8.4590299
Regensdorf-Watt Bahnhof,47.436798,8.4725559
Obstgarten,47.4293796,8.4683254
Dreispitz,47.4381938,8.4650134
Regensdorf-Watt Bahnhof,47.4361489,8.4727611
Obstgarten,47.4288253,8.4698632
Dänikon Gemeindehaus,47.4457957,8.4059689
Rotflue,47.4470276,8.3975769
Rotflue,47.4471084,8.3973383
Dällikon Dorf,47.4396983,8.439363
Hungerbergstrasse,47.4209726,8.5009694
Chrüzächer,47.4277716,8.4730019
Holenbach,47.4309342,8.4611494
Seitenacker,47.4387375,8.4445291
Regensdorf Zentrum Ost,47.4305643,8.4700949
Regensdorf Zentrum Ost,47.4301873,8.4701971
Regensdorf-Watt Bahnhof,47.4362162,8.4725866
Wigarten,47.3706081,8.6423407
Wigarten,47.3713077,8.6415636
Bändliweg,47.3963533,8.4850686
Manegg,47.337117,8.5198978
Rosengartenstrasse,47.3945073,8.5256102
Rosengartenstrasse,47.394391,8.5251722
Binz,47.363088,8.5194163
Rüti Bahnhof,47.2598021,8.8554366
Rüti Bahnhof,47.2599312,8.8551775
Altenhofstrasse,47.3552678,8.5615063
Altenhofstrasse,47.3551645,8.5614384
Flühgasse,47.3506263,8.5694048
Flühgasse,47.3504545,8.5694096
EPI-Klinik,47.3487977,8.5708185
EPI-Klinik,47.3486304,8.5707874
Bezirksspital,47.2802287,8.457962
Schulhaus Buchlern,47.3844743,8.4774737
Schulhaus Buchlern,47.3845139,8.477364
Feusisbergli,47.3925315,8.4706297
Feusisbergli,47.3926803,8.471313
Loogarten,47.38948,8.4721481
Loogarten,47.3894502,8.4724318
Baslerstrasse,47.3886946,8.4896805
Baslerstrasse,47.3886206,8.4902335
Letzipark West,47.3867941,8.4968769
Letzipark West,47.3859125,8.4960266
Letzipark West,47.3867395,8.4958081
Flurstrasse,47.3815117,8.4920279
Flurstrasse,47.3815628,8.4918983
Albisrank,47.3796991,8.4946389
Albisrank,47.379816,8.4947295
Hubertus,47.3769821,8.4992872
Hubertus,47.376905,8.4995883
Schaufelbergerstrasse,47.3692566,8.5015225
Schaufelbergerstrasse,47.3694031,8.5014344
Schweighof,47.364461,8.502754
Schweighof,47.364798,8.5027888
Tüffenwies,47.3985881,8.4949672
Orionstrasse,47.4167397,8.5664804
Orionstrasse,47.4167935,8.5663684
Blumenfeldstrasse,47.4238505,8.5050519
Aspholz,47.4249695,8.5010203
Rotbuchstrasse,47.3912842,8.5357136
Rotbuchstrasse,47.3914158,8.5356365
Militär-/Langstrasse,47.3797541,8.5274254
Militär-/Langstrasse,47.379555,8.527981
Grünaustrasse,47.3951099,8.4889899
Herti,47.4167048,8.5782161
Fernsehstudio,47.4180061,8.5616281
Fernsehstudio,47.4181485,8.5616485
Wagonsfabrik,47.3983865,8.4546193
Wagonsfabrik,47.3986388,8.4539187
Gasometerbrücke,47.3977954,8.4603097
Gasometerbrücke,47.3975131,8.4603875
Mülligen,47.3957423,8.4668731
Mülligen,47.3961789,8.4665964
Letzibach,47.3891675,8.4947633
Letzibach,47.3888157,8.4955442
Letzipark,47.3878305,8.499285
Letzipark,47.3874027,8.5003311
SBB-Werkstätte,47.3866631,8.5028296
SBB-Werkstätte,47.3870468,8.5019462
Herdernstrasse,47.3847915,8.5090366
Hardplatz,47.3829248,8.5149792
Bäckeranlage,47.3792306,8.5238149
Bäckeranlage,47.3791566,8.5235373
Kanonengasse,47.3783919,8.5301291
Kanonengasse,47.3785591,8.5300389
Neumarkt,47.3726637,8.5474707
Sprecherstrasse,47.3678872,8.5518599
Signaustrasse,47.3630463,8.5578581
Höschgasse,47.3578741,8.554955
Höschgasse,47.357933,8.5548241
Schaffhauserplatz,47.3914097,8.5380113
Schaffhauserplatz,47.3912548,8.538364
Rosengartenstrasse,47.3943501,8.5252675
Rosengartenstrasse,47.3940504,8.5258003
Sackzelg,47.374014,8.4952541
Schulhaus Altweg,47.3725723,8.4941367
Bahnhof Wipkingen,47.3932507,8.5299335
Bahnhof Wipkingen,47.3934825,8.5296664
Wieslergasse,47.4039374,8.4962182
Wieslergasse,47.4041683,8.4957526
Meierhofplatz,47.4017717,8.4998145
Meierhofplatz,47.4017035,8.5006293
Frohbühlstrasse,47.4280665,8.5571142
Ettenfeld,47.4252628,8.5533967
Ettenfeld,47.4257172,8.5541236
Frohbühlstrasse,47.4283222,8.557897
Giebeleichstrasse,47.4285963,8.5643475
Schönau,47.3252287,8.7888472
Medikon/Kulti,47.3237148,8.7869915
Uster-/Weststrasse,47.3272564,8.7933825
Uster-/Weststrasse,47.3270156,8.7930135
Widum,47.3305559,8.7964689
Motorenstrasse,47.3322076,8.797182
Motorenstrasse,47.3322138,8.7977103
Schwerzenbach Bahnhof,47.3840888,8.6594885
Schwerzenbach Bahnhof,47.3839437,8.6597703
Schwerzenbach Bahnhof,47.3841726,8.6598329
Schwerzenbach Bahnhof,47.3840041,8.6600907
Schwerzenbach Bahnhof,47.3843326,8.6595353
Bahnhof Altstetten,47.3902866,8.4894369
Haldenstrasse,47.3268041,8.7854442
Riedmattstrasse,47.4614402,8.5271089
Wetzikon Zentrum,47.3266851,8.7971499
Wetzikon Zentrum,47.3266787,8.7975206
Seeblerstrasse,47.4871354,8.4983984
Hofstetterstrasse,47.4827162,8.4944334
Am Suteracher,47.390908,8.4697515
Am Suteracher,47.3910203,8.4697539
Wetzikon Friedhof,47.3267662,8.8101716
Wetzikon Friedhof,47.3274245,8.8111416
Talhof,47.3324149,8.8164362
Schornäglen,47.3355363,8.8133265
Summerau,47.33825,8.8159864
Hofhalden,47.3470629,8.8189249
Ober Balm,47.3416413,8.8170489
Ober Balm,47.3420618,8.8171375
Pfadacher,47.3299178,8.8133677
Goldschlägistrasse,47.400685,8.439357
Goldschlägistrasse,47.4008451,8.439343
Am Rietpark,47.4013832,8.4446994
Am Rietpark,47.4013062,8.4426327
Juchhof,47.3984034,8.4726291
Juchhof,47.3982904,8.4737019
Vulkanstrasse,47.3944105,8.4841109
Trüllikon Dorf,47.6378638,8.694206
Dietlikonerstrasse,47.4415463,8.6295327
Aamüli,47.2294565,8.6232143
Rote Fabrik,47.34241,8.5363033
Buhnstrasse,47.4220294,8.5388447
Oberhusen,47.4269116,8.5692456
Lindberghplatz,47.4256184,8.5614521
Lindbergh-Allee,47.4242772,8.562502
Lindbergh-Allee,47.4243147,8.5626855
Chavez-Allee,47.4222781,8.5607093
Chavez-Allee,47.4223101,8.5608859
Wright-Strasse,47.4205163,8.5591273
Wright-Strasse,47.4205521,8.559317
Schützenhaus Höngg,47.4094978,8.4967079
Waidspital,47.3992484,8.5218965
Genossenschaftsstrasse,47.4153329,8.5628272
Genossenschaftsstrasse,47.4151901,8.5620553
Riedbach,47.4146014,8.5582798
Riedbach,47.4144623,8.5584981
Hagenholz,47.4145513,8.5547828
Hagenholz,47.4143978,8.5552794
Nordheimstrasse,47.4034983,8.5304727
Nordheimstrasse,47.4037622,8.5305132
Berufswahlschule,47.4042869,8.5332862
Maienweg,47.4074269,8.5265028
Maienweg,47.4076855,8.5265349
Althoos,47.4105117,8.5241733
Althoos,47.4107667,8.5240754
Staudenbühl,47.4200425,8.5355348
Friedhof Schwandenholz,47.4212341,8.5374938
Friedhof Schwandenholz,47.4214212,8.5377606
Hertensteinstrasse,47.4227638,8.5436441
Hertensteinstrasse,47.4228952,8.5436463
Friedhof Eichbühl,47.3828906,8.4746816
Schürgistrasse,47.4085317,8.5803074
Schürgistrasse,47.4089488,8.5791652
Belair,47.414318,8.5856111
Belair,47.4142335,8.5858754
Glatthof,47.4341115,8.5679842
Glatthof,47.4346445,8.5675745
Zoo/Forrenweid,47.3804929,8.5781858
Glattbrugg Post,47.4303402,8.5610816
Glattbrugg Zentrum,47.4335696,8.5656669
Glattbrugg Zentrum,47.4334974,8.5658804
Riethofstrasse,47.4360869,8.5684495
Bahnhof Balsberg,47.4417083,8.568245
Unterriet,47.4375126,8.5607181
Dreiwiesen,47.3787382,8.5754413
Dreiwiesen,47.3788887,8.57584
Ursprungstrasse,47.3849812,8.5999278
Ursprungstrasse,47.3849658,8.6001195
Kämmaten,47.3891913,8.5964322
Kämmaten,47.3896739,8.5967452
Hochbord Nord,47.4014189,8.6017964
Hochbord Nord,47.4015119,8.6019901
Müseren,47.3626629,8.6175767
Müseren,47.3628281,8.6173117
Industrie Gaswerk,47.4012829,8.4620704
Industrie Gaswerk,47.4007828,8.4633162
Kreuzstrasse,47.3628965,8.5499912
Feldeggstrasse,47.3602538,8.5522843
Zürich Flughafen,47.4497798,8.5635453
Dübendorf Bahnhof,47.3997197,8.6236723
Morgental,47.3446583,8.5298176
Strassenverkehrsamt,47.3539594,8.5115033
Strassenverkehrsamt,47.3530271,8.5114803
Twäracher,47.3608951,8.623413
Bühlhof,47.4834107,8.5605929
Seebüel,47.4924531,8.5471875
Seebüel,47.4922663,8.5472984
Stierwisen,47.409629,8.6428239
Hofstrasse,47.3731784,8.5617442
Hofstrasse,47.3729574,8.5625629
Hölderlinsteig,47.3664555,8.5650987
Hölderlinsteig,47.3672625,8.5647473
Klosbach,47.3703425,8.5636441
Klosbach,47.3696268,8.5641452
Grundstrasse,47.3129408,8.5300421
Tulpenstrasse,47.4061829,8.5684384
Meuchwis,47.4001414,8.4356226
Schlieren Bahnhof Nord,47.4010213,8.4490967
Bleulerstrasse,47.3471153,8.5716807
Ringstrasse,47.4000678,8.6073875
Ringstrasse,47.4001398,8.6071356
Wildbachstrasse,47.3531747,8.5588611
Wildbachstrasse,47.3532116,8.5588266
Loomatt,47.3384019,8.4855603
Rigiblick,47.3874577,8.5539706
Spyristeig,47.3862441,8.5561916
Spyristeig,47.3863401,8.5561622
Krönleinstrasse,47.3841863,8.5609072
Krönleinstrasse,47.3839808,8.5614005
Heubeeriweg,47.3816183,8.5646187
Heubeeriweg,47.3814769,8.5650824
Bircher-Benner,47.375828,8.564987
Bircher-Benner,47.3756801,8.5647927
Fröhlichstrasse,47.3552403,8.5568954
Fröhlichstrasse,47.3554091,8.5567354
Letzistrasse,47.3912305,8.5456373
Buhnstrasse,47.4221961,8.5394714
Waldau,47.260512,8.8395524
Waldau,47.2607442,8.8390294
Lägernstrasse,47.3958465,8.5321556
Lettenstrasse,47.3911083,8.5328573
Okenstrasse,47.3881889,8.5341309
Lettenstrasse,47.3901082,8.5325551
Bonstetten-Wettswil Bahnhof,47.3259689,8.4686073
Stadthaus,47.4025504,8.4005347
Stadthaus,47.4025549,8.4008455
Marmori-Weiher,47.3993547,8.3946808
Marmori-Weiher,47.3990697,8.3941918
